route,seq,name_en,name_tc,name_sc,location_en,location_tc,location_sc,lat,lng,path
2,14,CHEUNG SHA WAN STATION,長沙灣站,长沙湾站,TONKIN STREETO/S CHEUNG SHA WAN STATION,東京街長沙灣站,东京街长沙湾站,22.335413037,114.157855169,"[[""22.335413037"",""114.157855169""],[""22.335375607"",""114.157891501""],[""22.335489821"",""114.158005716""],[""22.33717448"",""114.159547606""],[""22.337224448"",""114.159583298""],[""22.337286314"",""114.159595195""],[""22.33734818"",""114.159564263""],[""22.337400528"",""114.159509536""],[""22.33749437"",""114.159359256""]]"
2B,3,WANG YIP HOUSE,宏業樓,宏业楼,"FU MEI STO/S WANG YIP HSE, WANG TAU HOMESTATE",富美街橫頭磡宏業樓外,富美街横头磡宏业楼外,22.340528961,114.188796912,"[[""22.340528961"",""114.188796912""],[""22.34053863"",""114.188782118""],[""22.340542474"",""114.188716594""],[""22.340574596"",""114.188570257""],[""22.340576977"",""114.188401316""],[""22.340594822"",""114.188065812""],[""22.340634083"",""114.186547716""]]"
2B,14,CAMP STREET,營盤街,营盘街,UN CHAU STREETO/S HSE NO. 151,元州街門牌151號,元州街门牌151号,22.334154149,114.160755302,"[[""22.334154149"",""114.160755302""],[""22.334224676"",""114.160806135""],[""22.336490793"",""114.157894365""]]"
2D,17,LION ROCK ROAD,獅子石道,狮子石道,NGA TSIN WAI RDO/S HOUSE NO.128,衙前圍道128號,衙前围道128号,22.329044955,114.187875015,"[[""22.329044955"",""114.187875015""],[""22.328997221"",""114.187876406""],[""22.328939806"",""114.189569725""]]"
2E,18,CHI KIANG STREET,浙江街,浙江街,TO KWA WAN RDHSE NO. 70C,土瓜灣道門牌70號C,土瓜湾道门牌70号C,22.315758048,114.189056247,"[[""22.315758048"",""114.189056247""],[""22.315758001"",""114.189056002""],[""22.316338573"",""114.189602979""],[""22.317136506"",""114.190360859""]]"
2X,11,PLAYING FIELD ROAD,運動場道,运动场道,PORTLAND STREETO/S HSE NO. 379E,砵蘭街門牌379E號,砵兰街门牌379E号,22.32476795,114.167479232,"[[""22.32476795"",""114.167479232""],[""22.324771276"",""114.16757231""],[""22.325092637"",""114.167510085""],[""22.325197333"",""114.16749581""],[""22.325244921"",""114.167483911""],[""22.325299649"",""114.167462496""],[""22.325330583"",""114.167431563""],[""22.325371033"",""114.167388734""],[""22.32560898"",""114.167069885""],[""22.326301403"",""114.166179967""],[""22.326534589"",""114.165811151""],[""22.326802229"",""114.16547131""]]"
3C,5,PITT STREET YAU MA TEI,油麻地碧街,油麻地碧街,NATHAN ROADO/S HSE NO. 549,彌敦道門牌549號,弥敦道门牌549号,22.313743992,114.170363736,"[[""22.313743992"",""114.170363736""],[""22.31375634"",""114.170430749""],[""22.314618653"",""114.170262925""],[""22.315554143"",""114.170081003""],[""22.317455707"",""114.169681202""],[""22.318286138"",""114.169505122""],[""22.318464598"",""114.16947062""]]"
3C,17,DIOCESAN BOYS' SCHOOL,拔萃男書院,拔萃男书院,PRINCE EDWARD ROAD WESTO/S HSE NO. 201,太子道西門牌201號,太子道西门牌201号,22.324948814,114.174484173,"[[""22.324948814"",""114.174484173""],[""22.325017078"",""114.174478362""],[""22.324787461"",""114.173183935""],[""22.324679194"",""114.172572413""]]"
3C,10,KOWLOON TONG CLUB,九龍塘會,九龙塘会,WATERLOO RDKOWLOON TONG CLUB,窩打老道九龍塘會,窝打老道九龙塘会,22.329236094,114.178469287,"[[""22.329236094"",""114.178469287""],[""22.329821027"",""114.178539038""],[""22.329951897"",""114.178578298""],[""22.33033737"",""114.178600903""],[""22.331715078"",""114.178688943""],[""22.33184119"",""114.178674667""],[""22.332030358"",""114.178680616""]]"
3D,0,TSZ WAN SHAN (CENTRAL) B/T,慈雲山(中)總站,慈云山(中)总站,TSZ WAN SHAN (CENTRAL) B/T,慈雲山（中）巴士總站,慈云山（中）巴士总站,22.348489833,114.200357978,"[[""22.348489833"",""114.200357978""],[""22.348714103"",""114.200134987""],[""22.348738827"",""114.200092827""],[""22.348761692"",""114.20007669""],[""22.348787867"",""114.200073121""],[""22.348928254"",""114.200104054""],[""22.348978407"",""114.200115385""],[""22.349009156"",""114.200104055""],[""22.349035331"",""114.200077879""],[""22.349053309"",""114.200015708""],[""22.349079351"",""114.199858969""],[""22.349091248"",""114.199825658""],[""22.349109093"",""114.199797104""],[""22.349131699"",""114.199772119""],[""22.349155493"",""114.199763791""],[""22.349180478"",""114.199762601""],[""22.349223307"",""114.199761411""],[""22.349269708"",""114.19976855""],[""22.349861003"",""114.199988651""],[""22.350323808"",""114.200146884""],[""22.350345224"",""114.200169489""],[""22.350366639"",""114.200195663""],[""22.350383295"",""114.200237303""],[""22.350390434"",""114.200284893""],[""22.350383662"",""114.200335984""],[""22.350271733"",""114.200654294""],[""22.35019357"",""114.200876573""]]"
12A,12,ST. TERESA'S HOSPITAL,聖德肋撒醫院,圣德肋撒医院,BOUNDARY STHSE NO. 179,界限街門牌179號,界限街门牌179号,22.327381774,114.185584146,"[[""22.327381774"",""114.185584146""],[""22.327287726"",""114.185586367""],[""22.3272937"",""114.18582445""],[""22.327306778"",""114.186160443""],[""22.327325728"",""114.186470411""],[""22.327339713"",""114.186731454""],[""22.327392706"",""114.187177391""],[""22.327438749"",""114.187530442""],[""22.327511814"",""114.187944334""]]"
12A,18,KWEI CHOW STREET,貴州街,贵州街,TO KWA WAN RDHSE NO 347 N. OF KWEI CHOW ST,土瓜灣道貴州街以北門牌347號,土瓜湾道贵州街以北门牌347号,22.318206255,114.191623061,"[[""22.318206255"",""114.191623061""],[""22.318260547"",""114.191564828""],[""22.317998696"",""114.191319303""],[""22.317488666"",""114.190813296""],[""22.316918733"",""114.190283849""]]"
2B,999,CHUK YUEN ESTATE B/T,竹園巴士總站,竹园巴士总站,CHUK YUEN RDCHUK YUEN ESTATE B/T,竹園道竹園巴士總站,竹园道竹园巴士总站,22.345524272,114.192199307,"[[""22.345524272"",""114.192199307""]]"
2E,3,FUK WA STREET,福華街,福华街,NAM CHEONG STREETO/S HSE NO. 174,南昌街門牌174號,南昌街门牌174号,22.330266245,114.164461895,"[[""22.330266245"",""114.164461895""],[""22.330308482"",""114.164414509""],[""22.328744001"",""114.16299844""],[""22.328495991"",""114.162779459""]]"
3C,11,CHRISTIAN CENTRAL CHURCH,基督中心堂,基督中心堂,WATERLOO RDSOUTH OF RUTLAND QUADRANTLP K8660-6,窩打老道律倫街以南燈柱K8660-6,窝打老道律伦街以南灯柱K8660-6,22.332023719,114.178691971,"[[""22.332023719"",""114.178691971""],[""22.332030358"",""114.178680616""],[""22.332139812"",""114.17870679""],[""22.33267638"",""114.178741291""],[""22.332778698"",""114.178749619""],[""22.332886963"",""114.178753188""],[""22.333032111"",""114.178756758""],[""22.333149894"",""114.178762706""],[""22.333264788"",""114.178771518""],[""22.334485822"",""114.178846488""],[""22.335172844"",""114.178892545""],[""22.335588842"",""114.178916183""],[""22.335750644"",""114.178894766""],[""22.335921965"",""114.178900716""]]"
3D,5,DIAMOND HILL CREMATORIUM,鑽石山火葬場,钻石山火葬场,PO KONG VILLAGE RDO/S DIAMOND HILL CREMATORIUM,蒲崗村道鑽石山墳場外,蒲岗村道钻石山坟场外,22.345107937,114.206879196,"[[""22.345107937"",""114.206879196""],[""22.345044443"",""114.206825566""],[""22.344727376"",""114.207129561""],[""22.344564315"",""114.207282624""],[""22.344466656"",""114.207364434""],[""22.344398279"",""114.207411502""],[""22.344258509"",""114.207475573""],[""22.343915222"",""114.207584833""],[""22.343316525"",""114.207772045""],[""22.342753619"",""114.207945082""],[""22.342176383"",""114.208138873""],[""22.342045511"",""114.208225723""],[""22.341957471"",""114.208262605""]]"
3D,11,LOWER NGAU TAU KOK ESTATE,牛頭角下,牛头角下,KWUN TONG ROADO/S LOWER NGAU TAU KOK ESTATE,觀塘道牛頭角下對開,观塘道牛头角下对开,22.321766218,114.214645168,"[[""22.321766218"",""114.214645168""],[""22.321752683"",""114.214586425""],[""22.321052208"",""114.21465152""],[""22.320302933"",""114.214727186""],[""22.319773228"",""114.214801123""],[""22.319478114"",""114.214820143""],[""22.318965178"",""114.214854732""],[""22.318401429"",""114.214923238""],[""22.318121319"",""114.214980773""],[""22.317953634"",""114.215041634""]]"
12A,4,KWEILIN STREET SHAM SHUI PO,深水桂林街,深水桂林街,LAI CHI KOK ROADO/S HSE NO. 374,荔枝角道門牌374號,荔枝角道门牌374号,22.329336792,114.159706929,"[[""22.329336792"",""114.159706929""],[""22.329398241"",""114.159545375""],[""22.32900305"",""114.160045483""],[""22.328355043"",""114.160876496""],[""22.327724008"",""114.161688442""],[""22.32745166"",""114.162060749""],[""22.327103099"",""114.16252051""]]"
12A,19,LOK SHAN ROAD,落山道,落山道,TO KWA WAN RDHSE NO. 275,土瓜灣道門牌275號,土瓜湾道门牌275号,22.31687379,114.19033205,"[[""22.31687379"",""114.19033205""],[""22.316918733"",""114.190283849""],[""22.316475731"",""114.189872316""],[""22.316262759"",""114.189665241""],[""22.315377712"",""114.188834301""],[""22.315115457"",""114.188590655""],[""22.315080472"",""114.188559367""],[""22.314828742"",""114.188334235""],[""22.314583059"",""114.188095372""]]"
2,7,NELSON STREET MONG KOK,旺角奶路臣街,旺角奶路臣街,NATHAN ROADO/S HSE NO. 639,彌敦道門牌639號,弥敦道门牌639号,22.317812807,114.169548863,"[[""22.317812807"",""114.169548863""],[""22.317819944"",""114.169587742""],[""22.31796747"",""114.169568706""],[""22.31919865"",""114.169316944""],[""22.321667151"",""114.168795955""],[""22.321798403"",""114.168769207""]]"
2,999,SO UK BUS TERMINUS,蘇屋巴士總站,苏屋巴士总站,SO UK B/T,蘇屋巴士總站,苏屋巴士总站,22.341084894,114.158664975,"[[""22.341084894"",""114.158664975""]]"
2B,7,SHEK KIP MEI PARK,石硤尾公園,石硖尾公园,CORNWALL STREETO/S SHEK KIP MEI GARDEN,歌和老街石硤尾公園,歌和老街石硖尾公园,22.339245832,114.171102745,"[[""22.339245832"",""114.171102745""],[""22.339287308"",""114.17067671""],[""22.339284929"",""114.170629121""],[""22.339325379"",""114.170481595""],[""22.339362138"",""114.170248576""],[""22.339392005"",""114.170059241""],[""22.339593112"",""114.168961043""],[""22.339632331"",""114.16873626""],[""22.339785805"",""114.167877275""],[""22.339788185"",""114.167724989""],[""22.339825066"",""114.167501321""]]"
2B,17,CHEUNG SHA WAN PATH,長沙灣徑,长沙湾径,CHEUNG SHA WAN ROADOPP. TO CHEUNG SHA WANPOST OFFICE,長沙灣道長沙灣郵政局對面,长沙湾道长沙湾邮政局对面,22.338203145,114.15128115,"[[""22.338203145"",""114.15128115""],[""22.33830231"",""114.151250076""],[""22.33804637"",""114.150505213""],[""22.337637101"",""114.149308343""],[""22.337195711"",""114.148036521""],[""22.337087447"",""114.147759314""],[""22.336721124"",""114.146737123""]]"
2B,999,CHEUNG SHA WAN BUS TERMINUS,長沙灣巴士總站,长沙湾巴士总站,CHEUNG SHA WANUNDERNEATH CHEUNG SHA WANPLAZA,長沙灣廣場地庫,长沙湾广场地库,22.337071054,114.148585791,"[[""22.337071054"",""114.148585791""]]"
3C,17,WONG TAI SIN STATION,黃大仙站,黄大仙站,LUNG CHEUNG RDO/S LUNG CHEUNG MALL,龍翔道龍翔中心外,龙翔道龙翔中心外,22.341855033,114.192263218,"[[""22.341855033"",""114.192263218""],[""22.341789"",""114.192256298""],[""22.3417856"",""114.192383999""],[""22.341730874"",""114.192705225""],[""22.341750008"",""114.193988733""],[""22.341761807"",""114.195202469""]]"
3C,24,TSZ ON COURT,慈安苑,慈安苑,WAI WAH STREETNEAR ON HONG HOUSE,惠華街近安康閣,惠华街近安康阁,22.348660722,114.20121595,"[[""22.348660722"",""114.20121595""],[""22.34873633"",""114.20125008""],[""22.348898941"",""114.200688427""],[""22.348996152"",""114.200335926""],[""22.349055684"",""114.200106042""],[""22.349094438"",""114.199850957""],[""22.349102396"",""114.199809286""],[""22.349112285"",""114.199784332""],[""22.349133699"",""114.199765296""],[""22.349161064"",""114.199762917""],[""22.349188427"",""114.199761727""],[""22.34921936"",""114.199766486""],[""22.349258622"",""114.199777195""],[""22.349717432"",""114.199942715""],[""22.350304394"",""114.200154338""],[""22.350341276"",""114.200159098""],[""22.350376967"",""114.200155528""],[""22.350410281"",""114.200140063""],[""22.350441213"",""114.200117458""],[""22.350467387"",""114.200081765""],[""22.350716042"",""114.199361978""]]"
12A,2,NAM CHEONG ESTATE,南昌,南昌,YEN CHOW STREET WESTOPP NAM CHEONG ESTATE,欽州街西南昌對面,钦州街西南昌对面,22.327350864,114.156846175,"[[""22.327350864"",""114.156846175""],[""22.327293531"",""114.156912852""],[""22.327454337"",""114.157051091""],[""22.327725075"",""114.15729748""],[""22.327995579"",""114.157540243""],[""22.328456611"",""114.157944701""],[""22.328657643"",""114.158123601""],[""22.328840001"",""114.15828345""],[""22.328922831"",""114.158359317""]]"
3D,6,FU SHAN ESTATE,富山,富山,PO KONG VILLAGE RDNEAR FU SHAN ESTATE,蒲崗村道近富山,蒲岗村道近富山,22.342011322,114.208247295,"[[""22.342011322"",""114.208247295""],[""22.341957471"",""114.208262605""],[""22.341794479"",""114.2082864""],[""22.341336443"",""114.208462588""],[""22.341256892"",""114.20848285""],[""22.341198508"",""114.208496592""],[""22.341068835"",""114.208498381""],[""22.340925457"",""114.208469542""],[""22.340854465"",""114.208445582""],[""22.340807498"",""114.20842459""],[""22.340769012"",""114.208402187""],[""22.340727869"",""114.208378239""],[""22.340709506"",""114.20836755""],[""22.34066751"",""114.208330542""],[""22.340574492"",""114.208237548""],[""22.3403685"",""114.208023522""],[""22.340252453"",""114.207907538""],[""22.339990676"",""114.20763271""],[""22.339846517"",""114.207482537""],[""22.339705538"",""114.207342457""],[""22.339681006"",""114.207318082""]]"
12A,10,CARITAS DORMITORY PRINCE EDWARD,明愛太子宿舍,明爱太子宿舍,BOUNDARY STO/S HSE NO. 119,界限街門牌119號,界限街门牌119号,22.32694572,114.177209237,"[[""22.32694572"",""114.177209237""],[""22.32691582"",""114.177210864""],[""22.326952337"",""114.177932164""],[""22.327001989"",""114.17919688""],[""22.327031795"",""114.179718389""],[""22.327044791"",""114.180278426""],[""22.327061855"",""114.180673531""]]"
12A,3,YEE KUK STREET SHAM SHUI PO,深水醫局街,深水医局街,YEN CHOW STREETO/S HSE NO. 19,欽州街門牌19號,钦州街门牌19号,22.328968077,114.158309826,"[[""22.328968077"",""114.158309826""],[""22.328922831"",""114.158359317""],[""22.329137024"",""114.158555506""],[""22.32961066"",""114.159007217""],[""22.329642782"",""114.159041719""],[""22.329661818"",""114.159077411""],[""22.329670012"",""114.159113483""],[""22.329667767"",""114.159149985""],[""22.329658249"",""114.159185677""],[""22.329640402"",""114.159223748""],[""22.329616607"",""114.159255871""],[""22.329398241"",""114.159545375""]]"
3C,19,FU YAU BUILDING,富祐大廈,富佑大厦,PO KONG VILLAGE RDO/S HOUSE NO. 69,蒲崗村道69號富祐大廈,蒲岗村道69号富佑大厦,22.344129985,114.198779141,"[[""22.344129985"",""114.198779141""],[""22.34410601"",""114.198840283""],[""22.344765591"",""114.198994671""],[""22.345025576"",""114.199069611""],[""22.345114466"",""114.199098838""],[""22.345209645"",""114.199147616""],[""22.345289626"",""114.199198042""],[""22.345401002"",""114.199276964""],[""22.345539576"",""114.199407649""],[""22.345620102"",""114.199499777""],[""22.345692676"",""114.199596144""],[""22.345766438"",""114.199712738""],[""22.345809269"",""114.199768655""],[""22.345844094"",""114.199824783""],[""22.345878597"",""114.199892598""],[""22.345905637"",""114.199970909""]]"
2F,11,WANG YIP HOUSE,宏業樓,宏业楼,"FU MEI STO/S WANG YIP HSE, WANG TAU HOMESTATE",富美街橫頭磡宏業樓外,富美街横头磡宏业楼外,22.340528961,114.188796912,"[[""22.340528961"",""114.188796912""],[""22.340538425"",""114.188797483""],[""22.340541995"",""114.188718961""],[""22.340574116"",""114.188548829""],[""22.340587204"",""114.188162167""],[""22.340608619"",""114.187321028""],[""22.340626464"",""114.186561979""]]"
3C,999,TSZ WAN SHAN (NORTH) BUS TERMINUS,慈雲山(北)總站,慈云山(北)总站,TSZ WAN SHAN (NORTH) B/T,慈雲山（北）總站,慈云山（北）总站,22.350932899,114.198195291,"[[""22.350932899"",""114.198195291""]]"
12A,6,LAI CHI KOK ROAD,荔枝角道,荔枝角道,BOUNDARY STO/S HSE NO. 15NEAR TAI NAM STREET,界限街門牌15號近大南街,界限街门牌15号近大南街,22.32642706,114.163723936,"[[""22.32642706"",""114.163723936""],[""22.32634057"",""114.163728625""],[""22.326371954"",""114.164315404""],[""22.32637496"",""114.164653395""],[""22.326398944"",""114.16530143""],[""22.326426495"",""114.165863889""],[""22.32646177"",""114.166671212""]]"
3D,7,HAMMER HILL ROAD SPORTS GROUND,斧山道運動場,斧山道运动场,HAMMER HILL RDNEAR EAST KOWLOON POLYCLINIC,斧山道近東九龍分科診所,斧山道近东九龙分科诊所,22.339659029,114.207353083,"[[""22.339659029"",""114.207353083""],[""22.339681133"",""114.207317805""],[""22.339664306"",""114.207301084""],[""22.339376671"",""114.207015284""],[""22.339348586"",""114.206985248""],[""22.339323241"",""114.206949064""],[""22.339320591"",""114.206945281""],[""22.339288626"",""114.206892261""],[""22.339229663"",""114.206780295""],[""22.339190655"",""114.206716222""],[""22.339159225"",""114.206687402""],[""22.339119965"",""114.206660039""],[""22.339079656"",""114.206643245""],[""22.3390326"",""114.206627218""],[""22.338984643"",""114.206595256""],[""22.338943885"",""114.206556531""],[""22.338908193"",""114.206510132""],[""22.338857034"",""114.20642923""],[""22.338814721"",""114.206374162""],[""22.338572104"",""114.206113025""],[""22.33826098"",""114.205699926""],[""22.338142007"",""114.205571436""],[""22.338063483"",""114.205454841""],[""22.337987342"",""114.205347765""],[""22.337920717"",""114.205231172""],[""22.337832676"",""114.205078886""],[""22.337744636"",""114.204907565""],[""22.337654217"",""114.204671998""],[""22.337589971"",""114.204472125""],[""22.337520967"",""114.204229419""],[""22.337485275"",""114.204077134""],[""22.337454342"",""114.203922468""],[""22.337425788"",""114.203774942""],[""22.337397234"",""114.203646451""],[""22.337344886"",""114.203589344""],[""22.337266365"",""114.203548893""],[""22.33719736"",""114.203536995""],[""22.337128356"",""114.203544134""],[""22.337068869"",""114.203584586""],[""22.337023659"",""114.203641692""],[""22.336968932"",""114.203729733""],[""22.336947517"",""114.203817773""],[""22.336942757"",""114.203898674""],[""22.336957035"",""114.203979575""],[""22.336961794"",""114.204050959""],[""22.336964172"",""114.204098548""],[""22.336952276"",""114.204146137""],[""22.336918963"",""114.204203245""],[""22.336863649"",""114.20425624""],[""22.336812702"",""114.204277211""],[""22.336755614"",""114.204284246""],[""22.336713702"",""114.204281195""],[""22.336684619"",""114.204276224""],[""22.336646683"",""114.204262203""],[""22.336600116"",""114.204265112""],[""22.336545697"",""114.204276197""],[""22.336448681"",""114.204309252""],[""22.336367326"",""114.204351863""],[""22.336058973"",""114.204513366""],[""22.335526637"",""114.204792187""]]"
12A,1,FU CHEONG ESTATE,富昌,富昌,SHAM MONG RDO/S FU CHEONG ESTATE,深旺道富昌對出,深旺道富昌对出,22.327330264,114.154676165,"[[""22.327330264"",""114.154676165""],[""22.327279362"",""114.154610572""],[""22.327155053"",""114.154707482""],[""22.327027075"",""114.154824411""],[""22.3268991"",""114.154956474""],[""22.326724073"",""114.155146435""],[""22.326480479"",""114.15546063""],[""22.326262758"",""114.155756873""],[""22.326237026"",""114.155788462""],[""22.326222306"",""114.155819929""],[""22.326218737"",""114.155854431""],[""22.326219927"",""114.155881796""],[""22.326225876"",""114.155909159""],[""22.326238963"",""114.155937712""],[""22.326256809"",""114.155963886""],[""22.326284173"",""114.155986491""],[""22.326794063"",""114.15644242""],[""22.326961129"",""114.156595633""],[""22.327096758"",""114.156728883""],[""22.327293531"",""114.156912852""]]"
12A,999,WHAMPOA GARDEN B/T,黃埔花園總站,黄埔花园总站,WHAMPOA GARDEN B/T,黃埔花園巴士總站,黄埔花园巴士总站,22.30489918,114.190689982,"[[""22.30489918"",""114.190689982""]]"
3D,999,TSZ WAN SHAN (CENTRAL) B/T,慈雲山(中)總站,慈云山(中)总站,TSZ WAN SHAN (CENTRAL) B/T,慈雲山（中）巴士總站,慈云山（中）巴士总站,22.348489833,114.200357978,"[[""22.348489833"",""114.200357978""]]"
3C,5,PO KONG VILLAGE ROAD PARK,蒲崗村道公園,蒲岗村道公园,PO KONG VILLAGE RDO/S PO KONG VILLAGE ROAD PARK,蒲崗村道蒲崗村道公園外,蒲岗村道蒲岗村道公园外,22.346298457,114.202561894,"[[""22.346298457"",""114.202561894""],[""22.346285553"",""114.20257705""],[""22.346148857"",""114.201601276""],[""22.346064452"",""114.201043733""],[""22.346053167"",""114.200981227""]]"
12A,5,SHEK KIP MEI STREET,石硤尾街,石硖尾街,LAI CHI KOK ROADO/S HSE NO. 242,荔枝角道門牌242號,荔枝角道门牌242号,22.327142071,114.162549989,"[[""22.327142071"",""114.162549989""],[""22.327103099"",""114.16252051""],[""22.326975021"",""114.162689449""],[""22.326688681"",""114.163064198""],[""22.326396007"",""114.163430635""],[""22.326363884"",""114.163484174""],[""22.326343659"",""114.163538901""],[""22.326335332"",""114.163598387""],[""22.32634057"",""114.163728625""]]"
3D,4,PO LEUNG KUK NO.1 W. H. CHEUNG COLLEGE,保良局第一張永慶中學,保良局第一张永庆中学,PO KONG VILLAGE RDO/S PO LEUNG KUK NO.1W. H. CHEUNG COLLEGE,蒲崗村道保良局第一張永慶中學,蒲岗村道保良局第一张永庆中学,22.34628218,114.205389903,"[[""22.34628218"",""114.205389903""],[""22.346222808"",""114.205536363""],[""22.346149043"",""114.205604178""],[""22.345970478"",""114.205869108""],[""22.345832244"",""114.206033473""],[""22.345721707"",""114.206159825""],[""22.345542979"",""114.206339678""],[""22.345057308"",""114.206813231""],[""22.345044443"",""114.206825566""]]"
3D,10,KOWLOON BAY STATION,九龍灣站,九龙湾站,KWUN TONG ROADOPP. TO KOWLOON BAY STATION,觀塘道九龍灣站對面,观塘道九龙湾站对面,22.325546719,114.214339222,"[[""22.325546719"",""114.214339222""],[""22.32554276"",""114.214280262""],[""22.325338126"",""114.214268365""],[""22.325227482"",""114.214233862""],[""22.324692103"",""114.214280262""],[""22.324134119"",""114.214345697""],[""22.323814484"",""114.214375798""],[""22.32304987"",""114.214450277""],[""22.321965711"",""114.214562072""],[""22.321752683"",""114.214586425""]]"
3D,5,KOWLOON BAY STATION,九龍灣站,九龙湾站,KWUN TONG ROADO/S KOWLOON BAY STATION,觀塘道九龍灣站外,观塘道九龙湾站外,22.324946824,114.214015112,"[[""22.324946824"",""114.214015112""],[""22.324941967"",""114.214080234""],[""22.325592397"",""114.214004634""],[""22.325927488"",""114.213929327""],[""22.326512413"",""114.213665399""],[""22.327238443"",""114.213327357""],[""22.327592539"",""114.213114718""],[""22.327928043"",""114.212893427""],[""22.328194544"",""114.212649532""],[""22.328344449"",""114.212504385""],[""22.328575258"",""114.21222004""]]"
12A,7,POPLAR STREET,白楊街,白杨街,BOUNDARY STO/S HSE NO. 27,界限街門牌27號,界限街门牌27号,22.326541847,114.166666804,"[[""22.326541847"",""114.166666804""],[""22.32646177"",""114.166671212""],[""22.326480986"",""114.16703742""],[""22.326519739"",""114.167669645""],[""22.326552948"",""114.168131465""],[""22.326595883"",""114.16857622""],[""22.326643471"",""114.16919012""],[""22.326689657"",""114.170094778""]]"
12A,14,SUNG WONG TOI ROAD,宋皇臺道,宋皇台道,MA TAU CHUNG ROAD90-98 MA TAU CHUNG ROADN. OF MA TAU KOK ROAD,馬頭涌道90-98號馬頭角道以北,马头涌道90-98号马头角道以北,22.323933028,114.188588025,"[[""22.323933028"",""114.188588025""],[""22.323959093"",""114.188534074""],[""22.32369294"",""114.188393561""],[""22.323683422"",""114.188389991""],[""22.323666765"",""114.188389991""],[""22.323654868"",""114.18839475""],[""22.323646541"",""114.188401889""],[""22.323637022"",""114.188418545""],[""22.323215669"",""114.189399398""],[""22.323001715"",""114.189890803""]]"
12A,20,HUNG FOOK STREET,鴻福街,鸿福街,TO KWA WAN RDHSE NO. 19,土瓜灣道門牌19號,土瓜湾道门牌19号,22.314563255,114.18811591,"[[""22.314563255"",""114.18811591""],[""22.314583059"",""114.188095372""],[""22.314457915"",""114.187973701""],[""22.3144307"",""114.187947239""],[""22.314271736"",""114.187790217""],[""22.314193696"",""114.18773128""],[""22.314129749"",""114.187695245""],[""22.314070766"",""114.187686273""],[""22.313656126"",""114.187681241""],[""22.313406774"",""114.187678215""],[""22.313178699"",""114.187676278""],[""22.312649747"",""114.187685204""],[""22.312440731"",""114.187683265""],[""22.312146606"",""114.18768805""],[""22.311989561"",""114.187684481""],[""22.311849172"",""114.187678532""],[""22.311559869"",""114.187665594""]]"
2,13,LAI KOK ESTATE,麗閣,丽阁,TONKIN STREETO/S CHEUNG SHA WAN ESTATEEAST OF LAI CHI KOK ROAD,東京街近長沙灣荔枝角道以東,东京街近长沙湾荔枝角道以东,22.333117911,114.155983258,"[[""22.333117911"",""114.155983258""],[""22.333172226"",""114.156059316""],[""22.334068584"",""114.156787296""],[""22.334785124"",""114.157373447""],[""22.335289947"",""114.157820117""],[""22.335375607"",""114.157891501""]]"
2A,16,HOSPITAL AUTHORITY BUILDING,醫院管理局,医院管理局,ARGYLE STKOWLOON HOSPITALLP BE6270-9,亞皆老街九龍醫院燈柱BE6270-9,亚皆老街九龙医院灯柱BE6270-9,22.323790549,114.182796401,"[[""22.323790549"",""114.182796401""],[""22.323756996"",""114.18280784""],[""22.323777224"",""114.18285612""],[""22.323808154"",""114.182983921""],[""22.323929506"",""114.18325518""],[""22.32400446"",""114.18342888""],[""22.324081791"",""114.183602581""],[""22.324209723"",""114.183891622""],[""22.324410732"",""114.184322345""],[""22.324701642"",""114.184964822""]]"
2B,11,WONG TAI SHAN MEMORIAL COLLEGE,黃棣珊紀念中學,黄棣珊纪念中学,NAM CHEONG STREETO/S WONG TAI SHAN MEMORIALCOLLEGE,南昌街黃棣珊紀念中學,南昌街黄棣珊纪念中学,22.334729864,114.16844017,"[[""22.334729864"",""114.16844017""],[""22.334723503"",""114.168307957""],[""22.334518869"",""114.168089047""],[""22.333890946"",""114.167513527""],[""22.332244636"",""114.166048149""],[""22.332124135"",""114.165939863""]]"
2X,15,YEE KOK COURT,怡閣苑,怡阁苑,CHEUNG SHA WAN ROADO/S YEE KOK COURT,長沙灣道怡閣苑,长沙湾道怡阁苑,22.333465894,114.158514291,"[[""22.333465894"",""114.158514291""],[""22.333512384"",""114.158594205""],[""22.336927773"",""114.154156023""],[""22.337460582"",""114.153482051""],[""22.33746772"",""114.153458255""],[""22.337484376"",""114.153420184""],[""22.337503411"",""114.153383303""],[""22.337797275"",""114.153021625""]]"
3D,999,KWUN TONG (YUE MAN SQUARE) B/T,觀塘(裕民坊)總站,观塘(裕民坊)总站,KWUN TONG (YUE MAN SQUARE) B/T,觀塘(裕民坊)總站,观塘(裕民坊)总站,22.313382891,114.225633839,"[[""22.313382891"",""114.225633839""]]"
12A,9,FA HUI PARK,花墟公園,花墟公园,BOUNDARY STOPP. TO MONGKOK STADIUM,界限街旺角大球場對面,界限街旺角大球场对面,22.326866095,114.173105213,"[[""22.326866095"",""114.173105213""],[""22.326735321"",""114.173110102""],[""22.326770772"",""114.173925248""],[""22.326773152"",""114.174025185""],[""22.326762897"",""114.174122418""],[""22.326742845"",""114.174198409""],[""22.32671087"",""114.174283448""],[""22.326618487"",""114.17453915""],[""22.326605399"",""114.174579601""],[""22.326601831"",""114.174611722""],[""22.32660778"",""114.174645036""],[""22.326618835"",""114.174677412""],[""22.326726868"",""114.174902418""],[""22.326770773"",""114.175011472""],[""22.326808843"",""114.175125686""],[""22.326830837"",""114.175240409""],[""22.326839776"",""114.175356494""],[""22.326867877"",""114.176250462""],[""22.326879802"",""114.176499412""],[""22.32691582"",""114.177210864""]]"
12A,11,LA SALLE PRIMARY SCHOOL,喇沙小學,喇沙小学,BOUNDARY STLA SALLE PRIMARY SCHOOLLP AA1251-3,界限街喇沙小學燈柱AA1251-3,界限街喇沙小学灯柱AA1251-3,22.32713193,114.180670212,"[[""22.32713193"",""114.180670212""],[""22.327061855"",""114.180673531""],[""22.327114751"",""114.181898406""],[""22.327253756"",""114.184400409""],[""22.327287726"",""114.185586367""]]"
12A,17,GRAND WATERFRONT,翔龍灣,翔龙湾,TO KWA WAN RDHSE NO. 377 SOUTH OF MING LUNST,土瓜灣道明倫街以南門牌377號,土瓜湾道明伦街以南门牌377号,22.319618849,114.192985081,"[[""22.319618849"",""114.192985081""],[""22.319677149"",""114.192918856""],[""22.319413716"",""114.192687279""],[""22.319100675"",""114.192357277""],[""22.318914709"",""114.192182305""],[""22.318813644"",""114.192086291""],[""22.318704719"",""114.191981309""],[""22.318260547"",""114.191564828""]]"
12A,8,SHEUNG HEUNG ROAD,上鄉道,上乡道,TO KWA WAN RDHSE NO. 80G TING ON BUILDING,土瓜灣道門牌80號G定安大廈對出,土瓜湾道门牌80号G定安大厦对出,22.317596774,114.190665758,"[[""22.317596774"",""114.190665758""],[""22.317532238"",""114.19074346""],[""22.317823165"",""114.191001838""],[""22.318045677"",""114.191211295""],[""22.318178094"",""114.191333712""],[""22.318293027"",""114.191439965""],[""22.318488962"",""114.191621102""],[""22.318667695"",""114.19178473""],[""22.318746847"",""114.191857271""],[""22.318876702"",""114.191976282""],[""22.318903261"",""114.19200066""],[""22.318912649"",""114.192009275""],[""22.319039726"",""114.192133317""],[""22.319159508"",""114.192248422""],[""22.319497643"",""114.192554293""],[""22.319567285"",""114.192621972""],[""22.319783911"",""114.19283249""],[""22.320184868"",""114.193228396""],[""22.32021937"",""114.193258141""],[""22.320257441"",""114.193279555""],[""22.320300158"",""114.193292101""],[""22.320343102"",""114.193293832""],[""22.320384742"",""114.193284314""],[""22.320422814"",""114.193260519""],[""22.320453448"",""114.193228455""],[""22.320481112"",""114.193183187""],[""22.320506096"",""114.19312846""],[""22.320644674"",""114.192808324""],[""22.320695724"",""114.192690857""]]"
2B,12,SHEK KIP MEI COMMERCIAL CENTRE,石硤尾商場,石硖尾商场,NAM CHEONG STREETO/S SHEK KIP MEI COMMERCIALCENTRE,南昌街石硤尾商場,南昌街石硖尾商场,22.332022804,114.166014228,"[[""22.332022804"",""114.166014228""],[""22.332124135"",""114.165939863""],[""22.331869339"",""114.165708396""],[""22.331341098"",""114.165224176""],[""22.33128518"",""114.165190863""],[""22.331248299"",""114.165178966""],[""22.331215256"",""114.16517426""],[""22.331166207"",""114.1651635""],[""22.33111267"",""114.165121859""],[""22.331042475"",""114.165056424""],[""22.331023441"",""114.165033819""],[""22.331016302"",""114.165000506""],[""22.331023441"",""114.164968384""],[""22.331050462"",""114.1649365""],[""22.332033246"",""114.163628744""]]"
12A,15,ST. TERESA'S CHURCH,聖德肋撒堂,圣德肋撒堂,PRINCE EDWARD ROAD WESTO/S HSE NO. 249,太子道西門牌249號,太子道西门牌249号,22.325447206,114.177493145,"[[""22.325447206"",""114.177493145""],[""22.325585945"",""114.177458133""],[""22.325485031"",""114.176895162""],[""22.325387797"",""114.176352717""],[""22.325318322"",""114.175965133""],[""22.325061025"",""114.174425442""]]"
12A,15,PAK TAI STREET,北帝街,北帝街,MOK CHEONG STHSE NO. 1E NEAR PAK TAI STLP E6105-0,木廠街門牌1號E近北帝街燈柱E6105-0,木厂街门牌1号E近北帝街灯柱E6105-0,22.323055266,114.189914064,"[[""22.323055266"",""114.189914064""],[""22.323001715"",""114.189890803""],[""22.322743715"",""114.190483365""],[""22.322612842"",""114.190781637""],[""22.322403659"",""114.191256341""],[""22.322382699"",""114.191304382""],[""22.322350717"",""114.191377323""],[""22.322242667"",""114.191601351""],[""22.322140665"",""114.191842355""],[""22.322037671"",""114.192075351""],[""22.321937658"",""114.192310349""],[""22.321834662"",""114.192548309""],[""22.321731667"",""114.192783306""],[""22.321629667"",""114.193011336""],[""22.321527664"",""114.193252338""],[""22.321422679"",""114.193484372""],[""22.321419362"",""114.193492541""]]"
12A,10,JUBILANT PLACE,欣榮花園,欣荣花园,MA TAU KOK RDHSE NO. 37 PAU CHUNG ST,馬頭角道門牌37號炮仗街,马头角道门牌37号炮仗街,22.321923075,114.189676158,"[[""22.321923075"",""114.189676158""],[""22.321977512"",""114.18971813""],[""22.322049062"",""114.189552417""],[""22.322238574"",""114.189113509""],[""22.322307741"",""114.188953319""],[""22.322538743"",""114.188453372""],[""22.322768962"",""114.187928147""],[""22.322786809"",""114.187894835""],[""22.322814172"",""114.18787223""],[""22.322845105"",""114.187859143""],[""22.322878419"",""114.187855573""],[""22.32291292"",""114.187854385""],[""22.322947423"",""114.187863902""],[""22.323317315"",""114.18804301""],[""22.323609989"",""114.188202433""],[""22.323757542"",""114.188290565""],[""22.324017018"",""114.188416441""],[""22.324136685"",""114.188474496""]]"
12A,22,TONKIN STREET WEST,東京街西,东京街西,SHAM MONG ROADNEAR TONKIN STREET WESTOPP. TO YING WA COLLEGE,深旺道近東京街西英華書院對面,深旺道近东京街西英华书院对面,22.329224046,114.152032018,"[[""22.329224046"",""114.152032018""],[""22.329289971"",""114.152123933""],[""22.329633276"",""114.151687282""],[""22.329853716"",""114.151401023""],[""22.330308193"",""114.150782364""],[""22.330550898"",""114.150396892""],[""22.330881643"",""114.149816303""]]"
12A,999,CHEUNG SHA WAN (SHAM MONG ROAD) B/T,長沙灣(深旺道)總站,长沙湾(深旺道)总站,SHAM MONG ROADNEAR HING WAH STREET WEST,深旺道近興華街西,深旺道近兴华街西,22.330638125,114.149930864,"[[""22.330638125"",""114.149930864""]]"
12A,16,THE HK SOCIETY FOR THE BLIND,香港盲人輔導會,香港盲人辅导会,MOK CHEONG STHSE NO. 19 THE HK SOCIETY FORTHE BLIND,木廠街門牌19號香港盲人輔導會,木厂街门牌19号香港盲人辅导会,22.321486999,114.193519739,"[[""22.321486999"",""114.193519739""],[""22.321419362"",""114.193492541""],[""22.321236147"",""114.193981726""],[""22.321230197"",""114.193996002""],[""22.321220679"",""114.194005519""],[""22.321205213"",""114.194015037""],[""22.321193315"",""114.194017418""],[""22.32117904"",""114.194016227""],[""22.321168332"",""114.194012658""],[""22.321156435"",""114.194005519""],[""22.320572276"",""114.193731882""],[""22.320489676"",""114.19367731""],[""22.32040866"",""114.193606358""],[""22.320330626"",""114.193531323""],[""22.320141684"",""114.193326321""],[""22.320016684"",""114.193217331""],[""22.319677149"",""114.192918856""]]"
2E,8,HOI FU COURT,海富苑,海富苑,HOI WANG RDO/S HOI FU COURT,海泓道海富苑對出,海泓道海富苑对出,22.316216864,114.163940843,"[[""22.316216864"",""114.163940843""],[""22.316208881"",""114.163855298""],[""22.315928259"",""114.163903022""],[""22.315648672"",""114.163964887""],[""22.315089498"",""114.164102896""],[""22.313970097"",""114.164377207""]]"
12A,6,SHEK TONG STREET,石塘街,石塘街,MA TAU WAI RDNEAR CHI KWONG ST GARDEN,馬頭圍道近浙江街公園,马头围道近浙江街公园,22.313787795,114.187494084,"[[""22.313787795"",""114.187494084""],[""22.313780707"",""114.187553044""],[""22.313949737"",""114.187551272""],[""22.314088748"",""114.187564253""],[""22.314128788"",""114.187577272""],[""22.314171757"",""114.187591242""],[""22.314223693"",""114.187612225""],[""22.314290783"",""114.187664807""],[""22.314325756"",""114.187692218""],[""22.314492371"",""114.187850197""],[""22.314555715"",""114.187910258""],[""22.314663059"",""114.188010198""],[""22.31467277"",""114.188019238""],[""22.314870753"",""114.18820525""],[""22.314926385"",""114.188260361""],[""22.314980762"",""114.18831423""],[""22.315635869"",""114.188942829""],[""22.316000944"",""114.189285155""]]"
12A,21,BAILEY STREET HUNG HOM,紅磡庇利街,红磡庇利街,MA TAU WAI ROAD HSE NO. 47,馬頭圍道門牌47號,马头围道门牌47号,22.311557219,114.187751715,"[[""22.311557219"",""114.187751715""],[""22.311559869"",""114.187665594""],[""22.311126749"",""114.187651218""],[""22.310755778"",""114.18764022""],[""22.310448758"",""114.187635232""],[""22.309977315"",""114.187638118""]]"
12A,23,TAK MAN STREET,德民街,德民街,TAK MAN STHSE NO. 31 NEAR HUNG HOM RD,德民街近紅磡道門牌31號,德民街近红磡道门牌31号,22.305879752,114.188303854,"[[""22.305879752"",""114.188303854""],[""22.305851976"",""114.188286259""],[""22.304566833"",""114.190240022""],[""22.304552556"",""114.190265006""],[""22.30454304"",""114.1902888""],[""22.304533521"",""114.190314974""],[""22.304529952"",""114.190343528""],[""22.304533522"",""114.190374461""],[""22.304544228"",""114.190399445""],[""22.304563264"",""114.19042205""],[""22.304976101"",""114.190707585""]]"
2B,10,SHUI TIN HOUSE PAK TIN ESTATE,白田瑞田樓,白田瑞田楼,NAM CHEONG STREETOPP. TO SHUI TIN HOUSE,南昌街瑞田樓對面,南昌街瑞田楼对面,22.335929834,114.169080161,"[[""22.335929834"",""114.169080161""],[""22.335929386"",""114.169070745""],[""22.335614904"",""114.168988547""],[""22.335514005"",""114.168935923""],[""22.335410158"",""114.168864718""],[""22.335032832"",""114.168534007""],[""22.334928136"",""114.168488796""],[""22.334723503"",""114.168307957""]]"
2B,15,WING LUNG STREET,永隆街,永隆街,UN CHAU STREETO/S HSE NO. 265,元州街門牌265號,元州街门牌265号,22.336400752,114.157818027,"[[""22.336400752"",""114.157818027""],[""22.336490793"",""114.157894365""],[""22.337823298"",""114.15617811""]]"
2X,999,MEI FOO B/T,美孚巴士總站,美孚巴士总站,MEI FOO B/T,美孚巴士總站,美孚巴士总站,22.337252761,114.139988206,"[[""22.337252761"",""114.139988206""]]"
12A,9,CHINA GAS COMPANY,中華煤氣公司,中华煤气公司,MA TAU KOK RDNEAR HONG KONG CHINA GAS CO.LTD,馬頭角道煤氣公司,马头角道煤气公司,22.320607165,114.192670961,"[[""22.320607165"",""114.192670961""],[""22.320695724"",""114.192690857""],[""22.32074767"",""114.192571329""],[""22.320789156"",""114.192475511""],[""22.320792707"",""114.192467309""],[""22.320847685"",""114.192340335""],[""22.320948692"",""114.192105339""],[""22.321052679"",""114.191873306""],[""22.321134966"",""114.191688174""],[""22.321156666"",""114.191639351""],[""22.321250719"",""114.191402353""],[""22.321351725"",""114.19116231""],[""22.321455711"",""114.190920346""],[""22.321562292"",""114.190686848""],[""22.32165957"",""114.190458136""],[""22.321839674"",""114.190037361""],[""22.321977512"",""114.18971813""]]"
3D,12,KWUN TONG ROAD SITTING-OUT AREA,觀塘道休憩處,观塘道休憩处,KWUN TONG ROADO/S KWUN TONG RDSITTING-OUT AREA,觀塘道休憩處對開,观塘道休憩处对开,22.317952954,114.21505482,"[[""22.317952954"",""114.21505482""],[""22.317953634"",""114.215041634""],[""22.317770666"",""114.21511235""],[""22.317550485"",""114.215213255""],[""22.317348522"",""114.215331056""],[""22.317208021"",""114.215424514""],[""22.31704621"",""114.21555628""],[""22.316858925"",""114.215742849""],[""22.316532476"",""114.21618535""],[""22.316365466"",""114.21643725""],[""22.316348061"",""114.216468132""]]"
12A,13,HAU WONG ROAD,侯王道,侯王道,PRINCE EDWARD RD WESTNO. 377-377A,太子道西門牌377-377A號,太子道西门牌377-377A号,22.327392867,114.188655047,"[[""22.327392867"",""114.188655047""],[""22.327441712"",""114.188640654""],[""22.327371682"",""114.188207384""],[""22.327361986"",""114.188102127""],[""22.327324143"",""114.187675392""],[""22.32729639"",""114.187511925""],[""22.327250712"",""114.187239759""],[""22.327238702"",""114.1871564""],[""22.327238297"",""114.187151308""],[""22.327176144"",""114.186758756""],[""22.327174774"",""114.186752421""],[""22.327104921"",""114.186352129""],[""22.327026359"",""114.185869031""],[""22.327017753"",""114.185815384""],[""22.326958909"",""114.185497854""],[""22.326883035"",""114.185069335""],[""22.32687878"",""114.185054432""],[""22.326876727"",""114.185042509""],[""22.326766504"",""114.184402434""],[""22.326752719"",""114.184322389""],[""22.326740424"",""114.1842479""],[""22.326586981"",""114.183318275""],[""22.32647357"",""114.182626723""]]"
5M,999,KAI TAK (TAK LONG ESTATE),啟德(德朗),启德(德朗),SHING KAI ROAD NEARTAK LONG ESTATE,承啟道近德朗,承启道近德朗,22.330540896,114.204625932,"[[""22.330540896"",""114.204625932""]]"
12A,16,DIOCESAN BOYS' SCHOOL,拔萃男書院,拔萃男书院,PRINCE EDWARD ROAD WESTO/S HSE NO. 201,太子道西門牌201號,太子道西门牌201号,22.324948814,114.174484173,"[[""22.324948814"",""114.174484173""],[""22.325061025"",""114.174425442""],[""22.324938891"",""114.173819816""],[""22.324861699"",""114.173450316""],[""22.324783177"",""114.17299346""],[""22.324714173"",""114.172519947""],[""22.324661825"",""114.172074988""],[""22.324598841"",""114.171628112""],[""22.324535713"",""114.171232659""],[""22.324396828"",""114.170420461""],[""22.324389913"",""114.170377392""],[""22.32436986"",""114.170269774""],[""22.324280023"",""114.169781456""],[""22.324260225"",""114.169673647""],[""22.324209687"",""114.169400101""],[""22.324180937"",""114.169244377""],[""22.324157629"",""114.169096683""],[""22.324096921"",""114.168728649""],[""22.324064591"",""114.168565187""],[""22.324010004"",""114.168287719""],[""22.323991923"",""114.168197361""],[""22.323968578"",""114.168096527""],[""22.3239231"",""114.167896746""],[""22.323826696"",""114.167425101""],[""22.323802253"",""114.167301144""],[""22.323762973"",""114.167096383""],[""22.32375294"",""114.167000377""],[""22.323752936"",""114.166912378""],[""22.323760971"",""114.166856408""],[""22.323764943"",""114.16682742""],[""22.323770903"",""114.166809404""],[""22.323783463"",""114.166772855""],[""22.323829967"",""114.166648347""],[""22.323871965"",""114.166568379""],[""22.323920916"",""114.166493428""],[""22.324088937"",""114.166286984""],[""22.324136373"",""114.166228701""],[""22.324287973"",""114.166042433""],[""22.324490564"",""114.16577786""],[""22.324575618"",""114.165666784""],[""22.325049827"",""114.164984776""],[""22.325319213"",""114.164654091""],[""22.325341983"",""114.164623457""],[""22.325382908"",""114.164570342""],[""22.32556186"",""114.164338082""]]"
12A,19,KWEILIN STREET SHAM SHUI PO,深水桂林街,深水桂林街,HAI TAN STREETO/S HSE NO. 195,海壇街門牌195號,海坛街门牌195号,22.328212958,114.15887594,"[[""22.328212958"",""114.15887594""],[""22.328240823"",""114.158897299""],[""22.328658129"",""114.158374053""],[""22.328670027"",""114.158358586""],[""22.328673595"",""114.158346689""],[""22.328674722"",""114.158331075""],[""22.328667646"",""114.158313375""],[""22.328658129"",""114.158302668""],[""22.328645042"",""114.158288392""],[""22.328356394"",""114.158004622""],[""22.328188128"",""114.157851287""],[""22.328146058"",""114.157813424""],[""22.328073066"",""114.157747451""],[""22.328072072"",""114.157747451""],[""22.328015071"",""114.157696451""],[""22.327947698"",""114.157635672""],[""22.327882309"",""114.157576681""],[""22.327768324"",""114.157473851""]]"
12A,8,POLICE SPORTS AND RECREATION CLUB,警察體育遊樂會,警察体育游乐会,BOUNDARY STO/S TAI HANG TUNGRECREATION GROUND,界限街近大坑東遊樂場,界限街近大坑东游乐场,22.326706834,114.170093784,"[[""22.326706834"",""114.170093784""],[""22.326689657"",""114.170094778""],[""22.326706527"",""114.170553552""],[""22.326704903"",""114.170695418""],[""22.326694629"",""114.170834328""],[""22.326682733"",""114.170972337""],[""22.326670836"",""114.171096069""],[""22.326661318"",""114.171260252""],[""22.326658938"",""114.171424435""],[""22.326677974"",""114.171807528""],[""22.32669701"",""114.172150171""],[""22.326711916"",""114.172510452""],[""22.326735321"",""114.173110102""]]"
2,10,SHEK KIP MEI STREET,石硤尾街,石硖尾街,LAI CHI KOK ROADO/S HSE NO. 233,荔枝角道門牌233號,荔枝角道门牌233号,22.326937174,114.162385,"[[""22.326937174"",""114.162385""],[""22.326990387"",""114.162430324""],[""22.327049872"",""114.162332765""],[""22.327632841"",""114.16160941""],[""22.328370473"",""114.160648108""],[""22.328577486"",""114.160391126""],[""22.328639353"",""114.160303085""]]"
2,15,PO HEI COURT,寶熙苑,宝熙苑,PO ON ROADO/S PO HEI COURTWING HEI HOUSE,保安道寶熙苑榮熙閣,保安道宝熙苑荣熙阁,22.337425891,114.1593219,"[[""22.337425891"",""114.1593219""],[""22.33749437"",""114.159359256""],[""22.339332162"",""114.156997418""],[""22.339353235"",""114.156978656""],[""22.339376181"",""114.156970054""],[""22.339400823"",""114.156972707""],[""22.339424961"",""114.156984331""],[""22.340075435"",""114.157591368""]]"
2B,13,SHAM SHUI PO POST OFFICE,深水郵政局,深水邮政局,UN CHAU STREETO/S SHAM SHUI POPOST OFFICE,元州街深水郵政局外,元州街深水邮政局外,22.331957716,114.16357903,"[[""22.331957716"",""114.16357903""],[""22.332033237"",""114.163628754""],[""22.334224676"",""114.160806135""]]"
2E,999,KOWLOON CITY FERRY B/T,九龍城碼頭,九龙城码头,KOWLOON CITY FERRY B/T,九龍城碼頭巴士總站,九龙城码头巴士总站,22.318413219,114.19343384,"[[""22.318413219"",""114.19343384""]]"
2X,12,MAPLE STREET,楓樹街,枫树街,YU CHAU STREETO/S HSE NO. 69,汝州街門牌69號,汝州街门牌69号,22.326718991,114.165438922,"[[""22.326718991"",""114.165438922""],[""22.326802229"",""114.16547131""],[""22.327632711"",""114.164416786""],[""22.328041505"",""114.163886162""]]"
12A,5,PAK KUNG STREET,北拱街,北拱街,MA TAU WAI RDHSE. NO. 150,馬頭圍道門牌150號,马头围道门牌150号,22.311398068,114.187549709,"[[""22.311398068"",""114.187549709""],[""22.311391125"",""114.187580135""],[""22.311541838"",""114.187586969""],[""22.312583725"",""114.187576228""],[""22.312655714"",""114.187574232""],[""22.312733472"",""114.187572619""],[""22.312908442"",""114.187568988""],[""22.313150354"",""114.187563968""],[""22.313233813"",""114.187562237""],[""22.313570726"",""114.187555247""],[""22.313780707"",""114.187553044""]]"
12A,11,THE FAMILY PLANNING ASSOCIATION OF HK,香港家庭計劃指導會,香港家庭计划指导会,MA TAU CHUNG ROADO/S HSE NO.77,馬頭涌道門牌77號,马头涌道门牌77号,22.324153723,114.188455188,"[[""22.324153723"",""114.188455188""],[""22.324136685"",""114.188474496""],[""22.324445705"",""114.188624405""],[""22.32445573"",""114.188629371""],[""22.324478135"",""114.188644471""],[""22.324888059"",""114.188849047""],[""22.325044147"",""114.188927106""],[""22.325164067"",""114.188987076""],[""22.325403687"",""114.189090504""],[""22.325404103"",""114.189090715""],[""22.325525222"",""114.189152013""],[""22.325797095"",""114.189289609""],[""22.325942111"",""114.189363001""],[""22.326319035"",""114.189553763""]]"
12A,14,LA SALLE ROAD,喇沙利道,喇沙利道,PRINCE EDWARD RD WESTO/S HSE NO. 305-307,太子道西近喇沙利道門牌305-307號,太子道西近喇沙利道门牌305-307号,22.326376124,114.182647275,"[[""22.326376124"",""114.182647275""],[""22.32647357"",""114.182626723""],[""22.326414619"",""114.182329656""],[""22.326311819"",""114.18176078""],[""22.326191251"",""114.181087844""],[""22.326146104"",""114.18083587""],[""22.326034761"",""114.180214422""],[""22.326003783"",""114.180045388""],[""22.325840849"",""114.179074414""],[""22.325808802"",""114.178890629""],[""22.325692889"",""114.178189251""],[""22.325668243"",""114.177993662""],[""22.325624693"",""114.177674296""],[""22.325585945"",""114.177458133""]]"
3D,11,LOWER NGAU TAU KOK ESTATE,牛頭角下,牛头角下,KWUN TONG ROADO/S LOWER NGAU TAU KOK ESTATE,觀塘道牛頭角下對開,观塘道牛头角下对开,22.321766218,114.214645168,"[[""22.321766218"",""114.214645168""],[""22.321752683"",""114.214586425""],[""22.321052208"",""114.21465152""],[""22.320302933"",""114.214727186""],[""22.319773228"",""114.214801123""],[""22.319478114"",""114.214820143""],[""22.318965178"",""114.214854732""],[""22.318401429"",""114.214923238""],[""22.318121319"",""114.214980773""],[""22.317953634"",""114.215041634""]]"
2D,999,TUNG TAU ESTATE BUS TERMINUS,東頭總站,东头总站,TUNG TAU ESTATE B/T,東頭巴士總站,东头巴士总站,22.333321089,114.19279616,"[[""22.333321089"",""114.19279616""]]"
2X,3,YING SHUN HOUSE,盈順樓,盈顺楼,"CHOI HA ROADO/S YING SHUN HOUSE,CHOI YING ESTATE",彩霞道彩盈盈順樓外,彩霞道彩盈盈顺楼外,22.3268153,114.215265316,"[[""22.3268153"",""114.215265316""],[""22.326792591"",""114.215287573""],[""22.3267267"",""114.215319848""],[""22.326546072"",""114.215408319""],[""22.326435656"",""114.215525529""],[""22.326328582"",""114.21565164""],[""22.326038287"",""114.216175122""],[""22.325877776"",""114.216589067""]]"
2X,999,CHOI FOOK,彩福,彩福,CHOI FOOK ROADO/S CHOI LOK HOUSECHOI FOOK ESTATE,彩榮路彩福彩樂樓外,彩荣路彩福彩乐楼外,22.328658756,114.217221703,"[[""22.328658756"",""114.217221703""]]"
3C,1,AUSTIN STATION,柯士甸站,柯士甸站,CANTON RD N/BO/S AUSTIN STATION,廣東道北行柯士甸站外,广东道北行柯士甸站外,22.303706911,114.167717797,"[[""22.303706911"",""114.167717797""],[""22.303717785"",""114.167767923""],[""22.304501817"",""114.16756091""],[""22.304603991"",""114.167534125""],[""22.304681467"",""114.167502613""],[""22.30475047"",""114.167464541""],[""22.304947967"",""114.16733843""],[""22.305032609"",""114.167273635""],[""22.305383408"",""114.167035049""],[""22.305657046"",""114.166911318""],[""22.305743966"",""114.166891152""],[""22.305774947"",""114.16689115""],[""22.305808141"",""114.16689466""],[""22.305842643"",""114.166904178""],[""22.305883094"",""114.166926783""],[""22.305914028"",""114.166955337""],[""22.305931873"",""114.166986271""],[""22.305940202"",""114.167023151""],[""22.305925925"",""114.16711952""],[""22.305911647"",""114.167225406""],[""22.305833264"",""114.167729608""],[""22.30581052"",""114.167899983""],[""22.305809331"",""114.168021335""],[""22.30577364"",""114.168186708""]]"
3C,15,LA VILLA,龍濤花園,龙涛花园,"WATERLOO RDHSE NO. 140, N. OF LANCASHIRERD",窩打老道蘭開夏道以北門牌140號,窝打老道兰开夏道以北门牌140号,22.331444067,114.178818151,"[[""22.331444067"",""114.178818151""],[""22.331462121"",""114.178819892""],[""22.330500818"",""114.178761595""],[""22.330314032"",""114.178750887""],[""22.329604952"",""114.178717575""]]"
3C,22,TAK OI SECONDARY SCHOOL,德愛中學,德爱中学,TSZ WAN SHAN RDOPP. TAK OI SECONDARY SCHOOL,慈雲山道德愛中學對面,慈云山道德爱中学对面,22.347594092,114.204095983,"[[""22.347594092"",""114.204095983""],[""22.347585543"",""114.204165897""],[""22.348183105"",""114.204179197""],[""22.348273524"",""114.20416254""],[""22.348347287"",""114.204136366""],[""22.348404394"",""114.204098295""],[""22.348450795"",""114.204056654""],[""22.348488865"",""114.204015014""],[""22.348518608"",""114.203963855""],[""22.348545972"",""114.203905559""],[""22.348560249"",""114.203848451""],[""22.348570957"",""114.203775879""],[""22.348617527"",""114.20314394""],[""22.348630114"",""114.202947298""],[""22.348648422"",""114.202707236""],[""22.348656525"",""114.202643641""]]"
3S,999,DIAMOND HILL STATION (LUNG POON STREET),鑽石山站(龍蟠街),钻石山站(龙蟠街),LUNG POON STREETO?S LUNG POON COURT,龍蟠街龍蟠苑外,龙蟠街龙蟠苑外,22.34145887,114.201053917,"[[""22.34145887"",""114.201053917""]]"
12A,7,CHI KIANG STREET,浙江街,浙江街,TO KWA WAN RDHSE NO. 68B,土瓜灣道門牌68號B,土瓜湾道门牌68号B,22.316088782,114.189221274,"[[""22.316088782"",""114.189221274""],[""22.316000944"",""114.189285155""],[""22.316256484"",""114.189524771""],[""22.316520977"",""114.189769914""],[""22.31655667"",""114.189800263""],[""22.316661722"",""114.18990183""],[""22.316906095"",""114.190138094""],[""22.317066267"",""114.190292951""],[""22.317532238"",""114.19074346""]]"
2A,999,MEI FOO B/T,美孚巴士總站,美孚巴士总站,MEI FOO B/T,美孚巴士總站,美孚巴士总站,22.337252761,114.139988206,"[[""22.337252761"",""114.139988206""]]"
12A,3,GILLIES AVENUE SOUTH,機利士南路,机利士南路,GILLIES AVENUE SOUTHHSE NO. 9-15,機利士南路門牌9-15號,机利士南路门牌9-15号,22.306587212,114.183925099,"[[""22.306587212"",""114.183925099""],[""22.306553514"",""114.183997363""],[""22.306702789"",""114.184094083""],[""22.30696644"",""114.184311675""],[""22.307112807"",""114.184421011""],[""22.30734468"",""114.18457629""],[""22.307489735"",""114.184672198""],[""22.307592885"",""114.184748549""],[""22.307816492"",""114.184924413""],[""22.307841476"",""114.184945829""],[""22.30786289"",""114.184975572""],[""22.307874789"",""114.185012453""],[""22.307877168"",""114.185046956""],[""22.307871219"",""114.185076699""],[""22.307856942"",""114.185106442""],[""22.307780739"",""114.185229214""],[""22.30765197"",""114.185416788""],[""22.307618771"",""114.185465148""],[""22.307226494"",""114.186057611""]]"
12A,4,MARSH STREET,孖庶街,孖庶街,WUHU STHSE NO. 48,蕪湖街門牌48號,芜湖街门牌48号,22.307305036,114.186094839,"[[""22.307305036"",""114.186094839""],[""22.307226494"",""114.186057611""],[""22.307069743"",""114.186320655""],[""22.307010622"",""114.186418077""],[""22.306927763"",""114.186562672""],[""22.306918244"",""114.186581708""],[""22.306919434"",""114.186603123""],[""22.306927588"",""114.18662485""],[""22.30694085"",""114.186640006""],[""22.307087928"",""114.186767685""],[""22.307218724"",""114.186866142""],[""22.307281651"",""114.186910721""],[""22.307476638"",""114.187048853""],[""22.307591933"",""114.187130532""],[""22.307773607"",""114.187259233""],[""22.307856765"",""114.187318145""],[""22.307887745"",""114.187340163""],[""22.307895334"",""114.187345938""],[""22.308112662"",""114.187473027""],[""22.308183734"",""114.187493187""],[""22.308217512"",""114.187504453""],[""22.30823775"",""114.187511205""],[""22.308295738"",""114.187524179""],[""22.30838173"",""114.187534194""],[""22.308393074"",""114.187534514""],[""22.308600654"",""114.187541344""],[""22.308650722"",""114.187543181""],[""22.308740777"",""114.187544148""],[""22.308768025"",""114.18754787""],[""22.309017772"",""114.187549644""],[""22.309116692"",""114.187550717""],[""22.309249526"",""114.187552155""],[""22.309554512"",""114.18755546""],[""22.309623098"",""114.187556203""],[""22.30980374"",""114.187558161""],[""22.309843855"",""114.187558282""],[""22.309961867"",""114.187558641""],[""22.310437778"",""114.187560089""],[""22.310778344"",""114.187564149""],[""22.310982197"",""114.187566507""],[""22.311203231"",""114.187571613""],[""22.311391125"",""114.187580135""]]"
12A,18,NAM CHEONG STREET SHAM SHUI PO,深水南昌街,深水南昌街,HAI TAN STREETO/S HSE NO. 159,海壇街門牌159號,海坛街门牌159号,22.326979877,114.160363012,"[[""22.326979877"",""114.160363012""],[""22.327053925"",""114.160429436""],[""22.327323283"",""114.16007396""],[""22.327498548"",""114.159849183""],[""22.327855839"",""114.159394135""],[""22.328033032"",""114.15916846""],[""22.328240823"",""114.158897299""]]"
12A,21,FU CHEONG ESTATE,富昌,富昌,SHAM MONG RDOPP. TO FU CHEONG ESTATE,深旺道富昌對面,深旺道富昌对面,22.327310474,114.154421372,"[[""22.327310474"",""114.154421372""],[""22.32730707"",""114.154441858""],[""22.327514041"",""114.154282471""],[""22.327625944"",""114.15418324""],[""22.327690559"",""114.15412594""],[""22.327699129"",""114.154118342""],[""22.327976895"",""114.153863422""],[""22.328173751"",""114.153621581""],[""22.328247203"",""114.1535312""],[""22.328315119"",""114.153447484""],[""22.328468848"",""114.153233203""],[""22.328586964"",""114.153068561""],[""22.328706478"",""114.152901972""],[""22.329076701"",""114.152397154""],[""22.329289971"",""114.152123933""]]"
3D,10,KOWLOON BAY STATION,九龍灣站,九龙湾站,KWUN TONG ROADOPP. TO KOWLOON BAY STATION,觀塘道九龍灣站對面,观塘道九龙湾站对面,22.325546719,114.214339222,"[[""22.325546719"",""114.214339222""],[""22.32554276"",""114.214280262""],[""22.325338126"",""114.214268365""],[""22.325227482"",""114.214233862""],[""22.324692103"",""114.214280262""],[""22.324134119"",""114.214345697""],[""22.323814484"",""114.214375798""],[""22.32304987"",""114.214450277""],[""22.321965711"",""114.214562072""],[""22.321752683"",""114.214586425""]]"
2D,16,COLLEGE ROAD,書院道,书院道,NGA TSIN WAI RDO/S HSE NO. 156 NEAR COLLEGEROAD,衙前圍道門牌156號近書院道,衙前围道门牌156号近书院道,22.32915294,114.184761011,"[[""22.32915294"",""114.184761011""],[""22.329093373"",""114.184770372""],[""22.329051734"",""114.186383648""],[""22.328997221"",""114.187876406""]]"
2E,4,KI LUNG STREET,基隆街,基隆街,NAM CHEONG STREETO/S HSE NO. 100,南昌街門牌100號,南昌街门牌100号,22.328427825,114.162836203,"[[""22.328427825"",""114.162836203""],[""22.328507529"",""114.162789978""],[""22.326771237"",""114.161232999""]]"
2F,999,CHEUNG SHA WAN BUS TERMINUS,長沙灣巴士總站,长沙湾巴士总站,CHEUNG SHA WANUNDERNEATH CHEUNG SHA WANPLAZA,長沙灣廣場地庫,长沙湾广场地库,22.33710381,114.148698024,"[[""22.33710381"",""114.148698024""]]"
3C,2,BATTERY STREET JORDAN,佐敦炮台街,佐敦炮台街,JORDAN ROADO/S HSE NO. 39,佐敦道門牌39號對出,佐敦道门牌39号对出,22.305803167,114.168193208,"[[""22.305803167"",""114.168193208""],[""22.30577364"",""114.168186708""],[""22.305545211"",""114.169201548""],[""22.305442895"",""114.169672681""],[""22.305347715"",""114.170105743""],[""22.305320352"",""114.170242563""],[""22.305300713"",""114.170389383""],[""22.305288229"",""114.170638742""],[""22.30528738"",""114.170884622""],[""22.305302505"",""114.171124153""],[""22.305326957"",""114.17132716""],[""22.305354854"",""114.171462036""],[""22.305377459"",""114.171526281""],[""22.305402444"",""114.171557214""],[""22.305434566"",""114.171565542""],[""22.305482155"",""114.171560783""],[""22.305548897"",""114.171546199""],[""22.306558861"",""114.171445381""],[""22.30691697"",""114.171402549""]]"
2F,3,TAK OI SECONDARY SCHOOL,德愛中學,德爱中学,TSZ WAN SHAN RDO/S LOK WAH ST. PLAYGROUNDNEAR L.P. E6903 6,慈雲山道樂華街遊樂場外近燈柱E6903 6,慈云山道乐华街游乐场外近灯柱E6903 6,22.348038821,114.204250183,"[[""22.348038821"",""114.204250183""],[""22.348039675"",""114.204223528""],[""22.347781545"",""114.204221653""],[""22.347601259"",""114.204223634""],[""22.347191397"",""114.204222339""],[""22.347153327"",""114.204211631""],[""22.347124772"",""114.204185457""],[""22.347100978"",""114.204154524""],[""22.347089081"",""114.204115263""],[""22.34711376"",""114.203700788""],[""22.347141972"",""114.20320024""],[""22.347166232"",""114.202769791""],[""22.347184236"",""114.202450363""],[""22.347192217"",""114.202258966""]]"
3C,24,PARKES STREET JORDAN,佐敦白加士街,佐敦白加士街,JORDAN ROADHSE NO.18-24NEAR PARKES STREET,佐敦道門牌18-24近白加士街,佐敦道门牌18-24近白加士街,22.305172254,114.170361098,"[[""22.305172254"",""114.170361098""],[""22.305190889"",""114.170363143""],[""22.305276628"",""114.169881114""],[""22.305456936"",""114.169049157""],[""22.305587393"",""114.168445573""]]"
3C,13,JUNCTION ROAD KOWLOON TONG,九龍塘聯合道,九龙塘联合道,WATERLOO RDSOUTH OF JUNCTION RD,窩打老道聯合道以南,窝打老道联合道以南,22.337823036,114.179256281,"[[""22.337823036"",""114.179256281""],[""22.337927117"",""114.179254143""],[""22.33774033"",""114.179213693""],[""22.336564189"",""114.179135167""],[""22.336366319"",""114.179115369""],[""22.335968556"",""114.179070704""],[""22.335883159"",""114.179085202""],[""22.335674957"",""114.179076874""]]"
3C,999,CHINA FERRY TERMINAL B/T,中港碼頭總站,中港码头总站,CHINA FERRY TERMINAL B/T,中港碼頭巴士總站,中港码头巴士总站,22.30023126,114.167829019,"[[""22.30023126"",""114.167829019""]]"
2A,19,KWEILIN STREET SHAM SHUI PO,深水桂林街,深水桂林街,LAI CHI KOK ROADO/S HSE NO. 319,荔枝角道門牌319號,荔枝角道门牌319号,22.328589003,114.160248163,"[[""22.328589003"",""114.160248163""],[""22.328661411"",""114.160295448""],[""22.328916057"",""114.159962454""],[""22.329498041"",""114.159216482""],[""22.329498339"",""114.159216163""],[""22.329723732"",""114.158907776""],[""22.329725992"",""114.158904479""],[""22.330061792"",""114.158471707""],[""22.330658103"",""114.157703196""]]"
2A,24,"LAI YEUNG HOUSE, LEI CHENG UK ESTATE",李鄭屋禮讓樓,李郑屋礼让楼,"KWONG LEE ROADO/S LAI YEUNG HOUSE,LEI CHENG UK ESTATE",廣利道李鄭屋禮讓樓對出,广利道李郑屋礼让楼对出,22.339749076,114.159979284,"[[""22.339749076"",""114.159979284""],[""22.339807919"",""114.159869713""],[""22.339859077"",""114.159818556""],[""22.339911427"",""114.159782863""],[""22.339981621"",""114.159701961""],[""22.340288989"",""114.159308582""],[""22.340614028"",""114.158880584""],[""22.340796868"",""114.158637057""]]"
2A,7,LAI KOK ESTATE,麗閣,丽阁,TONKIN STREETO/S LAI KOK ESTATE,東京街麗閣,东京街丽阁,22.333466796,114.156602024,"[[""22.333466796"",""114.156602024""],[""22.333225021"",""114.156274162""],[""22.333041004"",""114.156131534""],[""22.332607421"",""114.155774746""],[""22.332536037"",""114.155720017""],[""22.332489264"",""114.155699623""],[""22.332433719"",""114.155698603""],[""22.33238613"",""114.155712879""],[""22.332330213"",""114.155767606""],[""22.33179197"",""114.156488266""],[""22.331652633"",""114.156666307""],[""22.331611616"",""114.156769359""],[""22.331574735"",""114.156826467""]]"
2E,5,YEE KUK STREET,醫局街,医局街,NAM CHEONG STREETO/S HSE NO. 30,南昌街門牌30號,南昌街门牌30号,22.32672824,114.16128273,"[[""22.32672824"",""114.16128273""],[""22.326771237"",""114.161232999""],[""22.326353154"",""114.160858991""],[""22.326310324"",""114.160835196""],[""22.326267493"",""114.160818539""],[""22.326227042"",""114.160806643""],[""22.326174695"",""114.160804264""],[""22.326134244"",""114.160804263""],[""22.326091414"",""114.160804263""],[""22.326053342"",""114.16081378""],[""22.326027167"",""114.160830437""],[""22.326003373"",""114.160849472""],[""22.325303811"",""114.161777462""],[""22.325272879"",""114.161815533""],[""22.325241945"",""114.161844088""],[""22.325208634"",""114.161867883""],[""22.325180079"",""114.161889297""],[""22.325142009"",""114.161908332""],[""22.325096798"",""114.16192023""],[""22.325049209"",""114.161927368""],[""22.324592352"",""114.161960682""],[""22.323466867"",""114.161989234""]]"
2X,3,PEI HO STREET SHAM SHUI PO,深水北河街,深水北河街,LAI CHI KOK ROADO/S HSE NO. 330,荔枝角道門牌320號,荔枝角道门牌320号,22.328542771,114.160749879,"[[""22.328542771"",""114.160749879""],[""22.329293736"",""114.159677624""],[""22.32900305"",""114.160045483""],[""22.328415188"",""114.160799365""],[""22.328355043"",""114.160876496""],[""22.328172483"",""114.161111394""],[""22.327910633"",""114.161448313""],[""22.327823817"",""114.16156002""],[""22.327738147"",""114.16167025""],[""22.327476889"",""114.162027474""],[""22.32710428"",""114.162518953""]]"
2F,15,SHEK KIP MEI PARK,石硤尾公園,石硖尾公园,CORNWALL STREETO/S SHEK KIP MEI GARDEN,歌和老街石硤尾公園,歌和老街石硖尾公园,22.339245832,114.171102745,"[[""22.339245832"",""114.171102745""],[""22.339289057"",""114.170627186""],[""22.339323559"",""114.170503454""],[""22.339361631"",""114.170216729""],[""22.339394944"",""114.170047788""],[""22.339456674"",""114.169674091""],[""22.339544293"",""114.169203322""],[""22.339603242"",""114.168886589""],[""22.339695645"",""114.168397389""],[""22.339787554"",""114.167876529""],[""22.339785174"",""114.167723054""],[""22.339823246"",""114.167539836""]]"
2F,19,WONG TAI SHAN MEMORIAL COLLEGE,黃棣珊紀念中學,黄棣珊纪念中学,NAM CHEONG STREETO/S WONG TAI SHAN MEMORIALCOLLEGE,南昌街黃棣珊紀念中學,南昌街黄棣珊纪念中学,22.334729864,114.16844017,"[[""22.334729864"",""114.16844017""],[""22.334785129"",""114.168357095""],[""22.334605669"",""114.168196073""],[""22.334327694"",""114.167944617""],[""22.334131627"",""114.167752904""],[""22.333890946"",""114.167513527""],[""22.333612115"",""114.167260351""],[""22.333291636"",""114.16697644""],[""22.332940932"",""114.166675501""],[""22.332683895"",""114.166442885""],[""22.332429609"",""114.166214373""],[""22.332129151"",""114.165944371""]]"
3C,4,TAK OI SECONDARY SCHOOL,德愛中學,德爱中学,TSZ WAN SHAN RDO/S LOK WAH ST. PLAYGROUNDNEAR L.P. E6903 6,慈雲山道樂華街遊樂場外近燈柱E6903 6,慈云山道乐华街游乐场外近灯柱E6903 6,22.348038821,114.204250183,"[[""22.348038821"",""114.204250183""],[""22.348036896"",""114.204224318""],[""22.347749841"",""114.204222001""],[""22.347047039"",""114.204211232""],[""22.346654428"",""114.204205283""],[""22.346600892"",""114.204196955""],[""22.346555681"",""114.20417435""],[""22.346525939"",""114.204144606""],[""22.346503334"",""114.204116053""],[""22.34647716"",""114.204061325""],[""22.346375515"",""114.203208622""],[""22.346285553"",""114.20257705""]]"
5M,0,KAI TAK (TAK LONG ESTATE),啟德(德朗),启德(德朗),SHING KAI ROAD NEARTAK LONG ESTATE,承啟道近德朗,承启道近德朗,22.330540896,114.204625932,"[[""22.330540896"",""114.204625932""],[""22.330547261"",""114.204721197""],[""22.330673373"",""114.204742613""],[""22.330828038"",""114.204737853""],[""22.331027913"",""114.204740232""],[""22.331311068"",""114.20474975""],[""22.331682264"",""114.204759268""],[""22.331782202"",""114.204744991""],[""22.33187976"",""114.204721198""],[""22.332200987"",""114.204683125""]]"
2E,1,WONG TAI SHAN MEMORIAL COLLEGE,黃棣珊紀念中學,黄棣珊纪念中学,NAM CHEONG STREETO/S WONG TAI SHAN MEMORIALCOLLEGE,南昌街黃棣珊紀念中學,南昌街黄棣珊纪念中学,22.334729864,114.16844017,"[[""22.334729864"",""114.16844017""],[""22.334800905"",""114.16836143""],[""22.333656898"",""114.167300536""],[""22.332118953"",""114.165935206""]]"
2F,20,SHEK KIP MEI COMMERCIAL CENTRE,石硤尾商場,石硖尾商场,NAM CHEONG STREETO/S SHEK KIP MEI COMMERCIALCENTRE,南昌街石硤尾商場,南昌街石硖尾商场,22.332022804,114.166014228,"[[""22.332022804"",""114.166014228""],[""22.332129151"",""114.165944371""],[""22.331954961"",""114.165776468""],[""22.331343237"",""114.165232863""],[""22.331292079"",""114.16519836""],[""22.331242111"",""114.165180515""],[""22.33119809"",""114.165170997""],[""22.331170727"",""114.16515553""],[""22.331145742"",""114.165136494""],[""22.331043425"",""114.165043696""],[""22.331031528"",""114.165018711""],[""22.331026769"",""114.164991347""],[""22.33102796"",""114.164972312""],[""22.331034147"",""114.164957454""],[""22.33111495"",""114.164852454""],[""22.331277267"",""114.164633824""],[""22.331531212"",""114.164291782""],[""22.331721659"",""114.164035265""],[""22.332025925"",""114.163638262""]]"
2X,5,POPLAR STREET SHAM SHUI PO,深水白楊街,深水白杨街,LAI CHI KOK ROADO/S HSE NO. 110,荔枝角道門牌110號,荔枝角道门牌110号,22.324793226,114.165559801,"[[""22.324793226"",""114.165559801""],[""22.324774715"",""114.165546402""],[""22.324424997"",""114.165995421""],[""22.324357017"",""114.166083004""],[""22.323999078"",""114.166544166""],[""22.323911985"",""114.166656376""],[""22.323835537"",""114.166757147""],[""22.323640421"",""114.166972488""],[""22.323431029"",""114.167260403""],[""22.323293021"",""114.167446002""]]"
2F,14,KENT ROAD,根德道,根德道,CORNWALL STREETOPP. TO HOUSE NO. 6LOCKOO GARDENS,歌和老街門牌6號對面樂古臺,歌和老街门牌6号对面乐古台,22.339922097,114.176677186,"[[""22.339922097"",""114.176677186""],[""22.340051674"",""114.176690053""],[""22.340105212"",""114.175952419""],[""22.340150423"",""114.175185044""],[""22.340159941"",""114.174998257""],[""22.34015994"",""114.174834073""],[""22.340157561"",""114.174684168""],[""22.340151612"",""114.174561624""],[""22.340133766"",""114.174427185""],[""22.340101644"",""114.174268951""],[""22.339992188"",""114.173810906""],[""22.339741154"",""114.17281629""],[""22.339611474"",""114.172317794""],[""22.339548829"",""114.172070571""],[""22.339440029"",""114.171631016""],[""22.339358061"",""114.171304142""],[""22.3393435"",""114.171180091""],[""22.339325939"",""114.170988864""],[""22.339292626"",""114.170838959""],[""22.339289057"",""114.170627186""]]"
2X,2,LAI LO HOUSE,麗蘿樓,丽萝楼,LAI CHI KOK ROADO/S LAI KOK ESTATE BLK 1,荔枝角道麗閣第一座對出,荔枝角道丽阁第一座对出,22.331656172,114.156666592,"[[""22.331656172"",""114.156666592""],[""22.331574735"",""114.156826467""],[""22.331525955"",""114.156877625""],[""22.331462899"",""114.156915697""],[""22.330763715"",""114.157802152""],[""22.330728344"",""114.157847347""],[""22.330286051"",""114.1584125""],[""22.329954745"",""114.158836289""],[""22.329824008"",""114.159003519""],[""22.329822984"",""114.159004626""],[""22.32958908"",""114.159302808""],[""22.329587023"",""114.159306475""],[""22.329293736"",""114.159677624""]]"
2X,7,MONG KOK STATION,旺角站,旺角站,ARGYLE STREETO/S HSE NO. 83SINCERE HOUSE,亞皆老街門83號先施大廈,亚皆老街门83号先施大厦,22.319695737,114.170788099,"[[""22.319695737"",""114.170788099""],[""22.319663133"",""114.170790372""],[""22.319722619"",""114.171141343""],[""22.319777877"",""114.171445336""],[""22.319779863"",""114.171463353""],[""22.319797572"",""114.171568456""],[""22.319815418"",""114.171680291""],[""22.319827468"",""114.171752413""],[""22.319827926"",""114.171754324""],[""22.319912977"",""114.172248983""],[""22.319952869"",""114.172474309""],[""22.319971272"",""114.172586866""],[""22.320008758"",""114.172805447""],[""22.320087353"",""114.17323714""],[""22.320152111"",""114.173651674""],[""22.320171147"",""114.17376351""],[""22.32034268"",""114.174779166""],[""22.320475929"",""114.175500143""],[""22.320549693"",""114.175842786""],[""22.320618697"",""114.176059316""],[""22.320701978"",""114.176271089""],[""22.321251635"",""114.17754172""],[""22.322600789"",""114.180385176""],[""22.323533538"",""114.182429133""],[""22.323590644"",""114.18252907""],[""22.323673925"",""114.182626628""],[""22.323756996"",""114.18280784""]]"
3C,19,PRINCE EDWARD RAILWAY STATION,太子站,太子站,PRINCE EDWARD ROAD WESTO/S PRINCE EDWARD ROAD /NULLAH ROAD GARDEN,太子道西水渠道公園,太子道西水渠道公园,22.324121813,114.169732955,"[[""22.324121813"",""114.169732955""],[""22.324172369"",""114.169726578""],[""22.3239901"",""114.168648114""],[""22.323969378"",""114.168540448""],[""22.32394751"",""114.168511863""],[""22.323920147"",""114.168491639""],[""22.323893973"",""114.168484499""],[""22.323865419"",""114.168486879""],[""22.322675043"",""114.168721123""],[""22.321289932"",""114.169008875""],[""22.320407128"",""114.169198574""],[""22.319918235"",""114.169297073""]]"
5M,3,PING SHEK ESTATE,坪石,坪石,PRINCE EDWARD RD EASTNEAR CHOI HUNG INTERCHANGE,太子道東近彩虹交處,太子道东近彩虹交处,22.333233817,114.207130852,"[[""22.333233817"",""114.207130852""],[""22.333176567"",""114.207107796""],[""22.333105182"",""114.207186319""],[""22.333043317"",""114.207233907""],[""22.332976691"",""114.207291015""],[""22.331896329"",""114.20872915""],[""22.330704219"",""114.210213933""]]"
2A,11,THE ASTRID,雅麗居,雅丽居,ARGYLE STHSE NO 176O/S THE ASTRID,亞皆老街門牌176號雅麗居對出,亚皆老街门牌176号雅丽居对出,22.323148274,114.182050208,"[[""22.323148274"",""114.182050208""],[""22.323198091"",""114.182034392""],[""22.323042237"",""114.181678663""],[""22.323008924"",""114.18155731""],[""22.322959955"",""114.181420925""],[""22.322697216"",""114.180863697""],[""22.322550878"",""114.180551988""],[""22.322483839"",""114.180412353""],[""22.322409774"",""114.180251329""],[""22.322304962"",""114.180028629""],[""22.321879034"",""114.179123655""]]"
2D,9,CONCORDIA LUTHERAN SCHOOL,協同中學,协同中学,TAI HANG TUNG ROADO/S CONCORDIA LUTHERAN SCHOOL,大坑東道協同中學,大坑东道协同中学,22.330661167,114.171934843,"[[""22.330661167"",""114.171934843""],[""22.330593682"",""114.171839451""],[""22.330380377"",""114.171959457""],[""22.3302644"",""114.172004945""],[""22.330170766"",""114.172032719""],[""22.33006369"",""114.172048185""],[""22.32821009"",""114.172124328""]]"
2X,9,HONG KONG EYE HOSPITAL,香港眼科醫院,香港眼科医院,ARGYLE STHONG KONG EYE HOSPITALLP BE6265-9,亞皆老街香港眼科醫院燈柱BE6265-9,亚皆老街香港眼科医院灯柱BE6265-9,22.324907995,114.184865721,"[[""22.324907995"",""114.184865721""],[""22.324701642"",""114.184964822""],[""22.3249743"",""114.185573591""],[""22.325017132"",""114.185654492""],[""22.325050444"",""114.185716358""],[""22.325414501"",""114.186346917""],[""22.326530468"",""114.18826952""],[""22.326673236"",""114.188559814""],[""22.327044432"",""114.189235581""],[""22.327106297"",""114.189356934""],[""22.327144369"",""114.189440215""],[""22.32727048"",""114.189718612""],[""22.32766785"",""114.190717985""],[""22.327774926"",""114.190982107""],[""22.32784869"",""114.191127253""],[""22.327910555"",""114.19123433""],[""22.328005734"",""114.19136044""],[""22.328172296"",""114.191584109""],[""22.328838545"",""114.19237647""],[""22.329309678"",""114.192869019""],[""22.329559445"",""114.193127271""],[""22.32975932"",""114.193320009""],[""22.32997585"",""114.193550816""],[""22.330206659"",""114.193766158""],[""22.33032682"",""114.19388156""],[""22.330411291"",""114.193958893""],[""22.330487434"",""114.194039795""],[""22.330552639"",""114.194107406""],[""22.330786941"",""114.194346338""],[""22.330820903"",""114.194380972""],[""22.331240321"",""114.194808679""],[""22.331249825"",""114.194818371""],[""22.332098831"",""114.195684156""],[""22.332119653"",""114.195705389""],[""22.332325636"",""114.195915444""],[""22.332360587"",""114.195960453""],[""22.332386598"",""114.195994487""],[""22.332438617"",""114.196056475""],[""22.332442591"",""114.196062481""],[""22.332553587"",""114.196194463""],[""22.332612371"",""114.19625975""],[""22.332709928"",""114.196375154""],[""22.332809865"",""114.196488178""],[""22.332872845"",""114.196552506""],[""22.332912105"",""114.196602474""]]"
3C,10,WANG YIP HOUSE,宏業樓,宏业楼,"FU MEI STO/S WANG YIP HSE, WANG TAU HOMESTATE",富美街橫頭磡宏業樓外,富美街横头磡宏业楼外,22.340528961,114.188796912,"[[""22.340528961"",""114.188796912""],[""22.340538575"",""114.188799352""],[""22.340540954"",""114.18871845""],[""22.340577836"",""114.188547129""],[""22.340590924"",""114.188067667""],[""22.340600441"",""114.187736923""],[""22.340634944"",""114.186563848""]]"
3C,18,HEEP WOH PRIMARY SCHOOL,協和小學,协和小学,PRINCE EDWARD ROAD WESTO/S HSE NO. 191LP AA 2477-6,太子道西門牌191號近燈柱 AA 2477-6,太子道西门牌191号近灯柱 AA 2477-6,22.32461295,114.172570212,"[[""22.32461295"",""114.172570212""],[""22.324679194"",""114.172572413""],[""22.324556653"",""114.171875232""],[""22.324355588"",""114.170743798""],[""22.324334174"",""114.170621255""],[""22.324172369"",""114.169726578""]]"
2A,14,PEACE AVENUE,太平道,太平道,ARGYLE STREETO/S HSE NO. 98,亞皆老街門牌98號,亚皆老街门牌98号,22.319953189,114.173591304,"[[""22.319953189"",""114.173591304""],[""22.320010803"",""114.173596824""],[""22.319959645"",""114.173308909""],[""22.319939613"",""114.173107834""],[""22.319893896"",""114.172823336""],[""22.319893254"",""114.172814937""],[""22.319840014"",""114.172494118""],[""22.319837885"",""114.172482319""],[""22.319797843"",""114.172273844""],[""22.319750252"",""114.172009724""],[""22.319678869"",""114.17167065""],[""22.319638418"",""114.171438653""],[""22.319578932"",""114.17114241""],[""22.319517065"",""114.170848546""]]"
2A,2,YU CHAU WEST STREET,汝州西街,汝州西街,CASTLE PEAK ROADO/S HSE NO. 588-592,青山道門牌588-592號,青山道门牌588-592号,22.338964854,114.149766063,"[[""22.338964854"",""114.149766063""],[""22.338910453"",""114.149780549""],[""22.339074132"",""114.150244617""],[""22.339297309"",""114.150889807""]]"
2A,11,POPLAR STREET SHAM SHUI PO,深水白楊街,深水白杨街,LAI CHI KOK ROADO/S HSE NO. 110,荔枝角道門牌110號,荔枝角道门牌110号,22.324793226,114.165559801,"[[""22.324793226"",""114.165559801""],[""22.324774715"",""114.165546402""],[""22.324424997"",""114.165995421""],[""22.324357017"",""114.166083004""],[""22.323999078"",""114.166544166""],[""22.323911985"",""114.166656376""],[""22.323835537"",""114.166757147""],[""22.323640421"",""114.166972488""],[""22.323431029"",""114.167260403""],[""22.323293021"",""114.167446002""]]"
2A,23,PING SHEK ESTATE,坪石,坪石,PRINCE EDWARD RD EASTNEAR CHOI HUNG INTERCHANGE,太子道東近彩虹交處,太子道东近彩虹交处,22.33318526,114.207227304,"[[""22.33318526"",""114.207227304""],[""22.333190831"",""114.207092292""],[""22.333109929"",""114.207187469""],[""22.332955549"",""114.20730446""],[""22.33289655"",""114.207389489""],[""22.332830504"",""114.207480443""],[""22.332797526"",""114.207527441""],[""22.332734461"",""114.207617434""],[""22.332689467"",""114.207674439""],[""22.332653507"",""114.207720475""],[""22.332593513"",""114.207819438""],[""22.332405306"",""114.208059771""],[""22.332239694"",""114.208271247""],[""22.332214499"",""114.208303421""],[""22.331876113"",""114.208711495""],[""22.331699516"",""114.208924459""],[""22.331693447"",""114.208930995""],[""22.331366879"",""114.209375844""],[""22.331166901"",""114.209625168""],[""22.330843451"",""114.210028434""],[""22.330696108"",""114.21021164""]]"
2D,2,CHEUNG TIN HOUSE,昌田樓,昌田楼,PAK WAN STREETO/S CHEUNG TIN HOUSE,白雲街昌田樓,白云街昌田楼,22.336428722,114.168068163,"[[""22.336428722"",""114.168068163""],[""22.336451352"",""114.168285068""],[""22.33645968"",""114.168238669""],[""22.336500131"",""114.168177992""],[""22.336614346"",""114.167586696""],[""22.33663814"",""114.16752483""],[""22.336667884"",""114.167466533""],[""22.336718427"",""114.167395583""],[""22.336752354"",""114.167351129""],[""22.336778529"",""114.167294022""],[""22.33681779"",""114.167177429""],[""22.336859947"",""114.167006586""],[""22.336908438"",""114.166779037""],[""22.336928928"",""114.166566545""],[""22.336907019"",""114.16624349""],[""22.33689988"",""114.166144744""],[""22.33690107"",""114.16607098""],[""22.336893933"",""114.166007924""],[""22.336878466"",""114.16589252""],[""22.336937953"",""114.16553798""]]"
2E,2,SHEK KIP MEI COMMERCIAL CENTRE,石硤尾商場,石硖尾商场,NAM CHEONG STREETO/S SHEK KIP MEI COMMERCIALCENTRE,南昌街石硤尾商場,南昌街石硖尾商场,22.332022804,114.166014228,"[[""22.332022804"",""114.166014228""],[""22.332119432"",""114.165934673""],[""22.331832528"",""114.165688105""],[""22.331619565"",""114.165494179""],[""22.331479178"",""114.165366879""],[""22.331348307"",""114.165247905""],[""22.33133165"",""114.165234818""],[""22.331314994"",""114.16522411""],[""22.33124361"",""114.165196748""],[""22.331174607"",""114.165176522""],[""22.33115438"",""114.165162245""],[""22.331136534"",""114.165146778""],[""22.330308481"",""114.164414508""]]"
2X,4,SHEK KIP MEI STREET,石硤尾街,石硖尾街,LAI CHI KOK ROADO/S HSE NO. 242,荔枝角道門牌242號,荔枝角道门牌242号,22.327142071,114.162549989,"[[""22.327142071"",""114.162549989""],[""22.32710428"",""114.162518953""],[""22.326975021"",""114.162689449""],[""22.32647096"",""114.16329942""],[""22.326374423"",""114.163424713""],[""22.32625579"",""114.163579151""],[""22.326092455"",""114.163801856""],[""22.325894017"",""114.16405745""],[""22.32588765"",""114.164063802""],[""22.325746631"",""114.164257611""],[""22.325743006"",""114.164265414""],[""22.325398986"",""114.164708409""],[""22.325388702"",""114.16471811""],[""22.325173048"",""114.165029612""],[""22.325125959"",""114.165095426""],[""22.324774715"",""114.165546402""]]"
2F,21,SHAM SHUI PO POST OFFICE,深水郵政局,深水邮政局,UN CHAU STREETO/S SHAM SHUI POPOST OFFICE,元州街深水郵政局外,元州街深水邮政局外,22.331957716,114.16357903,"[[""22.331957716"",""114.16357903""],[""22.332025925"",""114.163638262""],[""22.332145064"",""114.163483365""],[""22.332387153"",""114.163168618""],[""22.332664525"",""114.162817185""],[""22.332901538"",""114.16251852""],[""22.333105302"",""114.162261755""],[""22.333223945"",""114.162107898""],[""22.333475384"",""114.161777692""],[""22.333623573"",""114.161583081""],[""22.333853976"",""114.161280503""],[""22.334145581"",""114.160907348""],[""22.334225246"",""114.160805405""]]"
3C,8,SHA TIN PASS ROAD,沙田坳道,沙田坳道,LUNG CHEUNG RDNEAR SHATIN PASS RD,"龍翔道近沙田坳道,龍輝樓","龙翔道近沙田坳道,龙辉楼",22.34146978,114.195370181,"[[""22.34146978"",""114.195370181""],[""22.341604022"",""114.195453625""],[""22.341645664"",""114.19529658""],[""22.341640268"",""114.194361327""],[""22.34162932"",""114.193204981""],[""22.34161711"",""114.192071222""],[""22.341579038"",""114.191911797""],[""22.34157309"",""114.191548929""]]"
5M,999,KAI TAK (TAK LONG ESTATE),啟德(德朗),启德(德朗),SHING KAI ROAD NEARTAK LONG ESTATE,承啟道近德朗,承启道近德朗,22.330540896,114.204625932,"[[""22.330540896"",""114.204625932""]]"
2A,22,CHEUNG SHA WAN STATION,長沙灣站,长沙湾站,TONKIN STREETO/S CHEUNG SHA WAN STATION,東京街長沙灣站,东京街长沙湾站,22.335413037,114.157855169,"[[""22.335413037"",""114.157855169""],[""22.33536678"",""114.157904384""],[""22.335583186"",""114.158105343""],[""22.336020977"",""114.158492547""],[""22.336048181"",""114.158515386""],[""22.336475995"",""114.158874547""],[""22.3368443"",""114.159212982""],[""22.33706916"",""114.159446169""],[""22.337183374"",""114.159552056""],[""22.337246017"",""114.159616548""],[""22.337264275"",""114.159657942""],[""22.337298777"",""114.159716238""],[""22.337351125"",""114.159770966""],[""22.33742597"",""114.159836586""],[""22.33765804"",""114.1600386""],[""22.337738658"",""114.160111509""]]"
2D,14,LA SALLE COLLEGE,喇沙書院,喇沙书院,LA SALLE RDO/S HSE NO 5,喇沙利道門牌5號,喇沙利道门牌5号,22.328511885,114.181842929,"[[""22.328511885"",""114.181842929""],[""22.328504458"",""114.181932865""],[""22.329808402"",""114.181993541""]]"
2F,23,WING LUNG STREET,永隆街,永隆街,UN CHAU STREETO/S HSE NO. 265,元州街門牌265號,元州街门牌265号,22.336400752,114.157818027,"[[""22.336400752"",""114.157818027""],[""22.336496158"",""114.157887536""],[""22.33672"",""114.157602532""],[""22.337050203"",""114.15717531""],[""22.33728272"",""114.156878307""],[""22.337408"",""114.156728605""],[""22.33752433"",""114.156574405""],[""22.337639555"",""114.15642167""],[""22.337730092"",""114.156301659""],[""22.337819806"",""114.156182738""]]"
2X,9,DIOCESAN BOYS' SCHOOL,拔萃男書院,拔萃男书院,PRINCE EDWARD ROAD WESTO/S HSE NO. 201,太子道西門牌201號,太子道西门牌201号,22.324948814,114.174484173,"[[""22.324948814"",""114.174484173""],[""22.325016619"",""114.174423605""],[""22.324945067"",""114.174027531""],[""22.324319052"",""114.170595318""],[""22.324187781"",""114.169843572""]]"
2F,18,SHUI TIN HOUSE PAK TIN ESTATE,白田瑞田樓,白田瑞田楼,NAM CHEONG STREETOPP. TO SHUI TIN HOUSE,南昌街瑞田樓對面,南昌街瑞田楼对面,22.335929834,114.169080161,"[[""22.335929834"",""114.169080161""],[""22.335928805"",""114.169066307""],[""22.335662036"",""114.169002093""],[""22.335427924"",""114.168878529""],[""22.335249411"",""114.16872696""],[""22.335013143"",""114.168514937""],[""22.334929085"",""114.168478448""],[""22.334785129"",""114.168357095""]]"
2X,11,PING SHEK ESTATE,坪石,坪石,PRINCE EDWARD RD EASTNEAR CHOI HUNG INTERCHANGE,太子道東近彩虹交處,太子道东近彩虹交处,22.33318526,114.207227304,"[[""22.33318526"",""114.207227304""],[""22.333190831"",""114.207092292""],[""22.333109929"",""114.207187469""],[""22.332955549"",""114.20730446""],[""22.33289655"",""114.207389489""],[""22.332830504"",""114.207480443""],[""22.332797526"",""114.207527441""],[""22.332734461"",""114.207617434""],[""22.332689467"",""114.207674439""],[""22.332653507"",""114.207720475""],[""22.332593513"",""114.207819438""],[""22.332405306"",""114.208059771""],[""22.332239694"",""114.208271247""],[""22.332214499"",""114.208303421""],[""22.331876113"",""114.208711495""],[""22.331699516"",""114.208924459""],[""22.331693447"",""114.208930995""],[""22.331366879"",""114.209375844""],[""22.331166901"",""114.209625168""],[""22.330843451"",""114.210028434""],[""22.330696108"",""114.21021164""]]"
3C,20,MONG KOK STATION,旺角站,旺角站,NATHAN RDO/S HSE NO. 678NEAR ARGYLE CENTRE,彌敦道門牌678號近旺角中心,弥敦道门牌678号近旺角中心,22.31986782,114.169295187,"[[""22.31986782"",""114.169295187""],[""22.319918235"",""114.169297073""],[""22.318248243"",""114.169644388""],[""22.316969795"",""114.16990854""],[""22.316009811"",""114.170105063""]]"
3D,8,PIK HOI HOUSE,碧海樓,碧海楼,CHOI HUNG ACCESS ROADNEAR PIK HOI HOUSE,彩虹通道近碧海樓,彩虹通道近碧海楼,22.335577096,114.20486172,"[[""22.335577096"",""114.20486172""],[""22.335526637"",""114.204792187""],[""22.335066528"",""114.205029486""],[""22.334980892"",""114.205066989""],[""22.334840505"",""114.205103871""],[""22.334783396"",""114.205119337""],[""22.334723911"",""114.205165737""],[""22.334663234"",""114.205234741""],[""22.334598989"",""114.205318022""],[""22.33424088"",""114.205749894""],[""22.333304756"",""114.20682264""],[""22.333133538"",""114.207059461""],[""22.332955549"",""114.20730446""],[""22.332346675"",""114.208134637""],[""22.331747205"",""114.208878885""],[""22.331382476"",""114.209356399""],[""22.330758845"",""114.210133634""],[""22.330593832"",""114.21033881""]]"
3C,3,CHING HONG HOUSE,正康樓,正康楼,"TSZ WAN SHAN RDO/S CHING HONG HSE,NEAR LP AB3817-6",慈雲山道慈正正康樓近燈柱AB3817-6,慈云山道慈正正康楼近灯柱AB3817-6,22.348702819,114.202723731,"[[""22.348702819"",""114.202723731""],[""22.348646076"",""114.202725664""],[""22.348629361"",""114.202959059""],[""22.348610633"",""114.203251629""],[""22.348587098"",""114.20361932""],[""22.348577142"",""114.203774871""],[""22.348565263"",""114.203883794""],[""22.348540279"",""114.203965885""],[""22.348511726"",""114.204019423""],[""22.348462946"",""114.204071772""],[""22.348406957"",""114.204116705""],[""22.348346354"",""114.204157432""],[""22.348277349"",""114.204188365""],[""22.34819751"",""114.2042148""],[""22.348036896"",""114.204224318""]]"
2,12,SHAM SHUI PO PARK,深水公園,深水公园,LAI CHI KOK ROADO/S SHAM SHUI PO PARK,荔枝角道深水公園,荔枝角道深水公园,22.330675353,114.157715062,"[[""22.330675353"",""114.157715062""],[""22.330664274"",""114.157726129""],[""22.331252002"",""114.156945665""],[""22.332341795"",""114.155557251""],[""22.332391762"",""114.155523938""],[""22.332456009"",""114.15551204""],[""22.332522633"",""114.155531076""],[""22.332563084"",""114.155562009""],[""22.332632089"",""114.155635772""],[""22.333022321"",""114.155942723""],[""22.333172226"",""114.156059316""]]"
2A,25,JOCKEY CLUB CLINIC CHEUNG SHA WAN,長沙灣賽馬會診療所,长沙湾赛马会诊疗所,KWONG LEE ROADOPP. TO SO UK B/T,廣利道蘇屋總站對面,广利道苏屋总站对面,22.34071689,114.158592217,"[[""22.34071689"",""114.158592217""],[""22.340796868"",""114.158637057""],[""22.340800975"",""114.158631585""],[""22.340826984"",""114.158590581""],[""22.34084604"",""114.158552618""],[""22.340863015"",""114.158504648""],[""22.340872043"",""114.158453635""],[""22.340864401"",""114.158415862""],[""22.340853693"",""114.15838136""],[""22.340841795"",""114.158343289""],[""22.340821569"",""114.158302838""],[""22.340772791"",""114.158239782""],[""22.340658441"",""114.158134368""],[""22.340454044"",""114.15795558""],[""22.339910237"",""114.157470028""],[""22.339520004"",""114.157114297""],[""22.339445051"",""114.157051241""],[""22.3394046"",""114.157010791""],[""22.339387945"",""114.156972719""],[""22.339381996"",""114.156946545""],[""22.339392703"",""114.156921561""],[""22.339590992"",""114.156664205""]]"
2X,13,SHEK KIP MEI STREET REST GARDEN,石硤尾街休憩花園,石硖尾街休憩花园,YU CHAU STREETO/S HSE NO. 139,汝州街門牌139號,汝州街门牌139号,22.327993873,114.163797803,"[[""22.327993873"",""114.163797803""],[""22.328041505"",""114.163886162""],[""22.329876282"",""114.161504586""]]"
2F,22,CAMP STREET,營盤街,营盘街,UN CHAU STREETO/S HSE NO. 151,元州街門牌151號,元州街门牌151号,22.334154149,114.160755302,"[[""22.334154149"",""114.160755302""],[""22.334225246"",""114.160805405""],[""22.334484447"",""114.160473716""],[""22.33480502"",""114.160065535""],[""22.335164556"",""114.15960199""],[""22.335417977"",""114.159274261""],[""22.335734051"",""114.158863949""],[""22.335932945"",""114.158605953""],[""22.336063852"",""114.158437959""],[""22.336199561"",""114.15826517""],[""22.336352193"",""114.158070836""],[""22.336496158"",""114.157887536""]]"
2X,4,CHEERFUL COURT,彩頤居,彩颐居,CHOI HA ROADOPP. TO CHEERFUL COURT,彩霞道彩頤居對面,彩霞道彩颐居对面,22.325778683,114.216742833,"[[""22.325778683"",""114.216742833""],[""22.325877776"",""114.216589067""],[""22.325857447"",""114.216641496""],[""22.325836033"",""114.216684328""],[""22.325805099"",""114.216717639""],[""22.325750371"",""114.216760469""],[""22.325462457"",""114.216915134""],[""22.325281618"",""114.216993656""],[""22.325015118"",""114.217129286""],[""22.324367905"",""114.217569486""],[""22.32430128"",""114.217612316""],[""22.324206102"",""114.217643249""],[""22.32412282"",""114.217662285""],[""22.323980053"",""114.217676562""],[""22.323918187"",""114.217681322""],[""22.323870598"",""114.217659906""],[""22.323837286"",""114.217609937""],[""22.323777798"",""114.217364852""],[""22.323725451"",""114.217238741""],[""22.323620585"",""114.217059392""],[""22.323215629"",""114.21638541""],[""22.323191835"",""114.216337821""],[""22.323193023"",""114.216309268""],[""22.323200162"",""114.216287852""],[""22.323213249"",""114.216267627""],[""22.323244182"",""114.216249781""],[""22.323272735"",""114.216242643""],[""22.323362399"",""114.216218306""],[""22.323421385"",""114.21620335""],[""22.323489406"",""114.216181349""],[""22.323572429"",""114.216131327""],[""22.323619457"",""114.216093558""],[""22.323628442"",""114.216086342""],[""22.323726464"",""114.216008299""],[""22.323841381"",""114.215919371""],[""22.323947551"",""114.215835119""],[""22.324054413"",""114.215750317""],[""22.324120084"",""114.215704026""],[""22.324210432"",""114.215640342""],[""22.324510713"",""114.21542966""]]"
3D,3,TAK OI SECONDARY SCHOOL,德愛中學,德爱中学,TSZ WAN SHAN RDO/S TAK OI SECONDARY SCHOOL,慈雲山道德愛中學,慈云山道德爱中学,22.34729322,114.204339229,"[[""22.34729322"",""114.204339229""],[""22.347284537"",""114.204227115""],[""22.346813886"",""114.204215027""],[""22.346660507"",""114.204212624""],[""22.346606535"",""114.204225926""],[""22.346577347"",""114.204250264""],[""22.346554743"",""114.204283577""],[""22.346542598"",""114.20434184""],[""22.346500583"",""114.204642667""],[""22.34647622"",""114.204783264""],[""22.346441525"",""114.204927662""],[""22.346374557"",""114.205131624""],[""22.346286061"",""114.205346788""],[""22.346273966"",""114.205441185""],[""22.346222808"",""114.205536363""]]"
1A,5,CHEUNG WO COURT,祥和苑,祥和苑,HIP WO STREETOPP TO CHEUNG WO COURT,協和街祥和苑對面,协和街祥和苑对面,22.319803102,114.227404989,"[[""22.319803102"",""114.227404989""],[""22.319761703"",""114.227346386""],[""22.319718265"",""114.227371232""],[""22.319606307"",""114.22743527""],[""22.319554269"",""114.227462234""],[""22.319382272"",""114.227514297""],[""22.31932481"",""114.227520518""],[""22.3193235"",""114.227521077""],[""22.319320623"",""114.227520971""],[""22.319281284"",""114.22752523""],[""22.319171268"",""114.227519266""],[""22.319142591"",""114.227514409""],[""22.319093527"",""114.2275061""],[""22.319088351"",""114.227505224""],[""22.31902708"",""114.227489283""],[""22.318953076"",""114.227457363""],[""22.318279751"",""114.227166928""],[""22.318266883"",""114.227161377""],[""22.318184695"",""114.227125927""],[""22.317872086"",""114.226995259""],[""22.317800281"",""114.226964214""],[""22.317790728"",""114.226959024""],[""22.31752823"",""114.226836454""],[""22.317220284"",""114.226703225""],[""22.317037977"",""114.226624492""]]"
2,0,STAR FERRY,尖沙咀碼頭,尖沙咀码头,STAR FERRY B/T,尖沙咀碼頭巴士總站,尖沙咀码头巴士总站,22.294303853,114.169112178,"[[""22.294303853"",""114.169112178""],[""22.294231687"",""114.168921285""],[""22.294230112"",""114.168949331""],[""22.29437757"",""114.16904184""],[""22.294533409"",""114.169607263""],[""22.29456061"",""114.169892181""],[""22.294607156"",""114.170538546""],[""22.294651167"",""114.171150569""],[""22.294732134"",""114.172219628""],[""22.294742885"",""114.172277429""],[""22.294764655"",""114.17230945""],[""22.29481569"",""114.172316253""],[""22.29581784"",""114.172238986""],[""22.296010994"",""114.172225374""],[""22.296051444"",""114.172222995""]]"
2X,10,PRINCE EDWARD STATION,太子站,太子站,PRINCE EDWARD ROAD WESTO/S PRINCE EDWARD ROAD /NULLAH ROAD GARDEN,太子道西水渠道公園,太子道西水渠道公园,22.324125769,114.16985489,"[[""22.324125769"",""114.16985489""],[""22.324187781"",""114.169843572""],[""22.323962133"",""114.16855136""],[""22.323916922"",""114.168272963""],[""22.323890748"",""114.168161128""],[""22.323888368"",""114.168087365""],[""22.323895507"",""114.16802074""],[""22.3239267"",""114.167921732""],[""22.32396953"",""114.167831313""],[""22.324000463"",""114.167793241""],[""22.324036155"",""114.167748032""],[""22.324071848"",""114.1677171""],[""22.324121816"",""114.167698063""],[""22.324771276"",""114.16757231""]]"
3S,3,FU SHAN,富山,富山,FU SHANPUBLIC TRANSPORT TERMINUS,富山巴士總站,富山巴士总站,22.343648728,114.207981915,"[[""22.343648728"",""114.207981915""],[""22.343650355"",""114.20798127""],[""22.343514726"",""114.207956285""],[""22.343456668"",""114.207896561""],[""22.343425735"",""114.207844213""],[""22.343405509"",""114.207781157""],[""22.343372197"",""114.20776926""],[""22.343347213"",""114.207778779""],[""22.343269879"",""114.207799003""],[""22.342276692"",""114.208102146""],[""22.341658033"",""114.208344852""],[""22.341412949"",""114.208435271""],[""22.34127732"",""114.208475722""],[""22.34114169"",""114.208501897""],[""22.341072685"",""114.208509034""],[""22.340967989"",""114.208494757""],[""22.340768114"",""114.208399579""],[""22.340546824"",""114.208211602""],[""22.340168491"",""114.207828508""],[""22.33968308"",""114.207321684""],[""22.339378509"",""114.207000457""],[""22.339169117"",""114.206722059""],[""22.339073939"",""114.206664952""],[""22.338997796"",""114.206595948""],[""22.338926411"",""114.206469836""],[""22.338912134"",""114.206379417""],[""22.338945447"",""114.206279479""],[""22.339016832"",""114.206181921""],[""22.339169117"",""114.206127194""],[""22.339330921"",""114.206039154""],[""22.339445134"",""114.205927319""],[""22.339497483"",""114.205805966""],[""22.339518898"",""114.205696512""],[""22.339521276"",""114.205472842""],[""22.339545072"",""114.205206342""],[""22.339671183"",""114.204946982""],[""22.340182767"",""114.203999956""]]"
3D,1,CHING FAI HOUSE,正暉樓,正晖楼,TSZ WAN SHAN RDNEAR CHING FAI HOUSETSZ CHING ESTATE,慈雲山道近慈正正暉樓,慈云山道近慈正正晖楼,22.350313923,114.200921961,"[[""22.350313923"",""114.200921961""],[""22.35019357"",""114.200876573""],[""22.350079398"",""114.201187234""],[""22.35001091"",""114.201324717""],[""22.349929589"",""114.201439686""],[""22.349843157"",""114.201556714""],[""22.3497432"",""114.201662818""],[""22.349634954"",""114.201774435""],[""22.349524501"",""114.20186864""],[""22.34937415"",""114.20196804""],[""22.349213682"",""114.202051773""],[""22.349087452"",""114.202111428""],[""22.348986551"",""114.202167046""],[""22.348898511"",""114.202241999""],[""22.348828317"",""114.202320521""],[""22.348758122"",""114.202426407""],[""22.348716482"",""114.202506119""],[""22.348687928"",""114.20259297""],[""22.348662944"",""114.202694098""],[""22.348648667"",""114.20290111""]]"
3D,9,KAI YIP ESTATE,啟業,启业,KWUN TONG RDO/S ST. JOSEPH'S PRIMARY SCH.,觀塘道聖若瑟英文小學對開,观塘道圣若瑟英文小学对开,22.330675264,114.210388127,"[[""22.330675264"",""114.210388127""],[""22.330593832"",""114.21033881""],[""22.330572067"",""114.210365872""],[""22.330157544"",""114.210821129""],[""22.329889276"",""114.211124603""],[""22.329481957"",""114.211600989""],[""22.329082208"",""114.212145885""],[""22.328913194"",""114.212360393""],[""22.328721765"",""114.212573303""],[""22.328587402"",""114.212710132""],[""22.328488962"",""114.212778444""],[""22.327733392"",""114.213258791""],[""22.326886499"",""114.213821702""],[""22.326436724"",""114.214091226""],[""22.326345828"",""114.214133926""],[""22.326246575"",""114.214174094""],[""22.326153092"",""114.214206499""],[""22.326053155"",""114.214237432""],[""22.325903248"",""114.214275503""],[""22.325790224"",""114.21428978""],[""22.32554276"",""114.214280262""]]"
2,5,MAN MING LANE YAU MA TEI,油麻地文明里,油麻地文明里,NATHAN RDHSE NO. 487 MAN MING LANE,彌敦道門牌487號近文明里,弥敦道门牌487号近文明里,22.311526996,114.170784811,"[[""22.311526996"",""114.170784811""],[""22.311542926"",""114.170855995""],[""22.311711868"",""114.170834579""],[""22.312194898"",""114.17074178""],[""22.313170477"",""114.170546665""],[""22.314034222"",""114.170368205""],[""22.314157953"",""114.170339652""]]"
2X,0,CHOI FOOK,彩福,彩福,CHOI FOOK ROADO/S CHOI LOK HOUSECHOI FOOK ESTATE,彩榮路彩福彩樂樓外,彩荣路彩福彩乐楼外,22.328658756,114.217221703,"[[""22.328658756"",""114.217221703""],[""22.328782398"",""114.217261438""],[""22.328913267"",""114.217256678""],[""22.328984651"",""114.217256678""],[""22.329022723"",""114.217256678""],[""22.329567619"",""114.217190053""],[""22.329631864"",""114.217173397""],[""22.329688971"",""114.217142464""],[""22.329748459"",""114.217109151""],[""22.329791288"",""114.21707108""],[""22.329831739"",""114.21703301""],[""22.329855533"",""114.216992558""],[""22.329891226"",""114.216930692""],[""22.329907882"",""114.216873585""],[""22.329919779"",""114.216790304""],[""22.329912049"",""114.216693844""],[""22.329900152"",""114.216606995""],[""22.329884685"",""114.2165368""],[""22.32986446"",""114.216471366""],[""22.329838285"",""114.216426155""],[""22.329781179"",""114.216352392""],[""22.329751436"",""114.216305992""],[""22.329678721"",""114.216136689""]]"
2X,14,KWEILIN STREET SHAM SHUI PO,深水桂林街,深水桂林街,YU CHAU STREETO/S HSE NO. 247,汝州街門牌247號,汝州街门牌247号,22.329851141,114.161401897,"[[""22.329851141"",""114.161401897""],[""22.329874162"",""114.161506706""],[""22.330152559"",""114.161149787""],[""22.330821188"",""114.160309836""],[""22.33086164"",""114.16025273""],[""22.330906849"",""114.160214658""],[""22.330961577"",""114.16021228""],[""22.331013924"",""114.160236073""],[""22.331063894"",""114.160269386""],[""22.331709713"",""114.16084039""],[""22.331737423"",""114.160845579""],[""22.331761218"",""114.1608432""],[""22.331792994"",""114.160828494""],[""22.333512384"",""114.158594205""]]"
3D,2,CHING HONG HOUSE,正康樓,正康楼,"TSZ WAN SHAN RDO/S CHING HONG HSE,NEAR LP AB3817-6",慈雲山道慈正正康樓近燈柱AB3817-6,慈云山道慈正正康楼近灯柱AB3817-6,22.348672311,114.202906964,"[[""22.348672311"",""114.202906964""],[""22.348648667"",""114.20290111""],[""22.34859394"",""114.20374225""],[""22.348583232"",""114.203813633""],[""22.348571335"",""114.203869551""],[""22.34854635"",""114.203946883""],[""22.348509469"",""114.204012318""],[""22.348468505"",""114.204059692""],[""22.348432136"",""114.204101549""],[""22.348382501"",""114.204134636""],[""22.348325501"",""114.204164658""],[""22.348254866"",""114.204191968""],[""22.348182294"",""114.204211003""],[""22.348034766"",""114.204218142""],[""22.347619922"",""114.204223429""],[""22.347284537"",""114.204227115""]]"
3D,13,"TING FU STREET, KWUN TONG",觀塘定富街,观塘定富街,KWUN TONG ROADNEAR HOUSE NO.83TING FU STREET,觀塘道近定富街83號,观塘道近定富街83号,22.316392009,114.21649206,"[[""22.316392009"",""114.21649206""],[""22.316348061"",""114.216468132""],[""22.316143395"",""114.216861887""],[""22.315998684"",""114.217190735""],[""22.315861866"",""114.217551606""],[""22.315658573"",""114.218104263""],[""22.315548437"",""114.218396212""],[""22.315212407"",""114.219258897""],[""22.315098377"",""114.219584255""],[""22.314973301"",""114.219868026""],[""22.314845329"",""114.220202512""],[""22.314647208"",""114.220671494""],[""22.314184404"",""114.221893347""]]"
1A,18,HAU WONG ROAD,侯王道,侯王道,PRINCE EDWARD RD WESTNO. 377-377A,太子道西門牌377-377A號,太子道西门牌377-377A号,22.327436877,114.188844935,"[[""22.327436877"",""114.188844935""],[""22.327422983"",""114.188718232""],[""22.327380715"",""114.188512357""],[""22.327371682"",""114.188207384""],[""22.327353721"",""114.188012402""],[""22.327356613"",""114.187990259""],[""22.327347402"",""114.18784254""],[""22.327303996"",""114.187556723""],[""22.327253689"",""114.187260418""],[""22.327243213"",""114.187187716""],[""22.327184709"",""114.186798385""],[""22.327174774"",""114.186752421""],[""22.327172838"",""114.18674132""],[""22.327091702"",""114.186276377""],[""22.327074009"",""114.186166077""],[""22.327017753"",""114.185815384""],[""22.326951667"",""114.185458775""],[""22.326871511"",""114.185012225""],[""22.326863183"",""114.184963862""],[""22.326829802"",""114.184770017""],[""22.326756106"",""114.184378045""],[""22.326536006"",""114.183152621""]]"
1,0,CHUK YUEN EST. BUS TERMINUS,竹園總站,竹园总站,CHUK YUEN EST B/T,竹園巴士總站,竹园巴士总站,22.345414734,114.192639785,"[[""22.345414734"",""114.192639785""],[""22.345336653"",""114.192682141""],[""22.345334273"",""114.192759474""],[""22.345321186"",""114.192805873""],[""22.345302151"",""114.192842755""],[""22.345271218"",""114.192876067""],[""22.345234764"",""114.19290182""],[""22.345201654"",""114.192900237""],[""22.345164772"",""114.192881203""],[""22.345158824"",""114.19284551""],[""22.345129724"",""114.191932549""],[""22.345119563"",""114.191344071""],[""22.345114804"",""114.190988341""],[""22.345111794"",""114.190443069""],[""22.345078481"",""114.190265799""],[""22.345077291"",""114.190142067""]]"
3C,22,PITT STREET YAU MA TEI,油麻地碧街,油麻地碧街,NATHAN RDO/S HSE NO. 538,彌敦道門牌538號,弥敦道门牌538号,22.313461234,114.17067372,"[[""22.313461234"",""114.17067372""],[""22.313446389"",""114.170629049""],[""22.311213903"",""114.171054228""],[""22.310347605"",""114.171211901""],[""22.310115704"",""114.171232777""],[""22.309680262"",""114.171263711""],[""22.309123932"",""114.171320206""],[""22.308913625"",""114.171336248""]]"
1A,19,LA SALLE ROAD,喇沙利道,喇沙利道,PRINCE EDWARD RD WESTHSE NO. 311CLP 09491-8,太子道西門牌311C號燈柱09491-8,太子道西门牌311C号灯柱09491-8,22.326473184,114.183159294,"[[""22.326473184"",""114.183159294""],[""22.326536006"",""114.183152621""],[""22.326402756"",""114.182370968""],[""22.326352789"",""114.182025946""],[""22.326331659"",""114.18187152""],[""22.326327309"",""114.181847244""],[""22.326294719"",""114.181665338""],[""22.326072022"",""114.180422389""]]"
1,16,NELSON STREET MONG KOK,旺角奶路臣街,旺角奶路臣街,NATHAN RDO/S HSE NO. 648,彌敦道門牌648號,弥敦道门牌648号,22.318602986,114.169602811,"[[""22.318602986"",""114.169602811""],[""22.318596593"",""114.169571913""],[""22.318570442"",""114.169577354""],[""22.318289493"",""114.169635807""],[""22.317752143"",""114.169747601""],[""22.31774317"",""114.169749468""],[""22.317517932"",""114.169796329""],[""22.316651359"",""114.169973729""],[""22.316170959"",""114.170072073""]]"
1,17,SOY STREET MONG KOK,旺角豉油街,旺角豉油街,NATHAN RDO/S HSE NO. 582O/S SINO CENTRE,彌敦道門牌582號信和中心,弥敦道门牌582号信和中心,22.316173779,114.170139785,"[[""22.316173779"",""114.170139785""],[""22.316170959"",""114.170072073""],[""22.316115463"",""114.170083434""],[""22.315485961"",""114.170212302""],[""22.315179627"",""114.170276074""],[""22.31508198"",""114.170296494""],[""22.314938003"",""114.170326603""],[""22.314671943"",""114.170382242""],[""22.314665168"",""114.170383042""],[""22.314364342"",""114.17044196""],[""22.314325502"",""114.170449376""],[""22.313922961"",""114.170526236""],[""22.313720928"",""114.170569822""],[""22.313400761"",""114.170633589""],[""22.313147349"",""114.170689507""],[""22.312772052"",""114.170764206""],[""22.312611147"",""114.170793358""],[""22.312188053"",""114.170868572""],[""22.311919891"",""114.170916244""],[""22.311560936"",""114.170986237""],[""22.311374571"",""114.171022749""]]"
1,18,WING SING LANE YAU MA TEI,油麻地永星里,油麻地永星里,NATHAN RDHSE NO. 484,彌敦道門牌484號,弥敦道门牌484号,22.311385904,114.17109175,"[[""22.311385904"",""114.17109175""],[""22.311374571"",""114.171022749""],[""22.311328548"",""114.171031766""],[""22.311213903"",""114.171054228""],[""22.310974079"",""114.171102045""],[""22.310917903"",""114.171113247""],[""22.310739962"",""114.171143198""],[""22.310543954"",""114.171181236""],[""22.310300887"",""114.171219197""],[""22.310165863"",""114.171233012""],[""22.309997932"",""114.171250194""],[""22.309818482"",""114.171260577""],[""22.30969951"",""114.171267716""],[""22.309123932"",""114.171320206""],[""22.309120951"",""114.171320205""],[""22.309098911"",""114.171322207""],[""22.309051941"",""114.171326212""],[""22.309048961"",""114.171326212""],[""22.308625189"",""114.171357638""],[""22.308284919"",""114.171392637""],[""22.308171896"",""114.171402155""],[""22.307830443"",""114.171436657""],[""22.307716228"",""114.171449744""],[""22.307024995"",""114.171519939""],[""22.306699181"",""114.17155171""]]"
1,19,CHEONG LOK STREET YAU MA TEI,油麻地長樂街,油麻地长乐街,NATHAN RDHSE NO. 334 NEAR CHEONG LOKSTREET,彌敦道門牌334號近長樂街,弥敦道门牌334号近长乐街,22.306709762,114.171640886,"[[""22.306709762"",""114.171640886""],[""22.306699609"",""114.171551939""],[""22.306533912"",""114.171572182""],[""22.306129882"",""114.171608145""],[""22.305894942"",""114.171636176""],[""22.305567576"",""114.171669845""],[""22.3051476"",""114.171706727""],[""22.3051012"",""114.171709106""],[""22.30467069"",""114.171739688""],[""22.304528303"",""114.171750877""]]"
1,20,TAK SHING STREET TSIM SHA TSUI,尖沙咀德成街,尖沙咀德成街,NATHAN RDHSE NO. 222O/S PRUDENTIAL CENTRE,彌敦道門牌222號恒豐中心對出,弥敦道门牌222号恒丰中心对出,22.304530004,114.171825967,"[[""22.304530004"",""114.171825967""],[""22.304528303"",""114.171750877""],[""22.30449109"",""114.171753056""],[""22.304403923"",""114.171758164""],[""22.303932083"",""114.171771094""],[""22.303422878"",""114.171809166""],[""22.303181363"",""114.171828201""],[""22.302584119"",""114.171863893""],[""22.301454332"",""114.171943776""],[""22.30138283"",""114.171948256""],[""22.30127293"",""114.171955143""],[""22.300871332"",""114.171973535""],[""22.300574887"",""114.171987111""],[""22.300398929"",""114.17200313""],[""22.300396073"",""114.17200334""],[""22.300340743"",""114.17200633""],[""22.300056744"",""114.172029143""],[""22.299869234"",""114.172042193""],[""22.299714947"",""114.172053571""],[""22.299582429"",""114.172062578""],[""22.299469403"",""114.172087563""],[""22.299325446"",""114.172116116""],[""22.298976856"",""114.172136342""]]"
1,21,CAMERON ROAD,金馬倫道,金马伦道,NATHAN RDHSE NO. 86-88,彌敦道門牌86-88號,弥敦道门牌86-88号,22.298979007,114.172114268,"[[""22.298979007"",""114.172114268""],[""22.298976856"",""114.172136342""],[""22.298486686"",""114.172156568""],[""22.298268937"",""114.172166039""],[""22.298232896"",""114.172168042""],[""22.297934544"",""114.172196687""],[""22.297904176"",""114.172200084""],[""22.297680852"",""114.17222069""],[""22.297552869"",""114.172234254""],[""22.296957495"",""114.172270658""],[""22.296653814"",""114.172287504""],[""22.296324449"",""114.172313117""],[""22.295960674"",""114.172339312""],[""22.295861502"",""114.172345827""]]"
1,22,MIDDLE ROAD TSIM SHA TSUI,尖沙咀中間道,尖沙咀中间道,NATHAN RD NO. 26O/S SHERATON HOTELNEAR MIDDLE ROAD,彌敦道門牌26號喜來登酒店對出近中間道,弥敦道门牌26号喜来登酒店对出近中间道,22.295876999,114.172441894,"[[""22.295876999"",""114.172441894""],[""22.295861502"",""114.172345827""],[""22.29560394"",""114.172364026""],[""22.295433044"",""114.17237862""],[""22.294972889"",""114.172417914""],[""22.294893312"",""114.172420565""],[""22.294829068"",""114.172416996""],[""22.294787426"",""114.172400339""],[""22.294748166"",""114.172376544""],[""22.294705336"",""114.172330145""],[""22.294682731"",""114.172282556""],[""22.294669955"",""114.172197059""],[""22.294652184"",""114.17201142""],[""22.294616493"",""114.171810355""],[""22.29458675"",""114.171561702""],[""22.294560575"",""114.17121668""]]"
